[{"id":"ny-new-york-city","name":"New York City","state":"NY","lat":40.7143,"lon":-74.006},{"id":"ca-los-angeles","name":"Los Angeles","state":"CA","lat":34.0522,"lon":-118.2437},{"id":"ny-brooklyn","name":"Brooklyn","state":"NY","lat":40.6501,"lon":-73.9496},{"id":"il-chicago","name":"Chicago","state":"IL","lat":41.85,"lon":-87.65},{"id":"ny-queens","name":"Queens","state":"NY","lat":40.6815,"lon":-73.8365},{"id":"tx-houston","name":"Houston","state":"TX","lat":29.7633,"lon":-95.3633},{"id":"az-phoenix","name":"Phoenix","state":"AZ","lat":33.4484,"lon":-112.074},{"id":"pa-philadelphia","name":"Philadelphia","state":"PA","lat":39.9524,"lon":-75.1636},{"id":"tx-san-antonio","name":"San Antonio","state":"TX","lat":29.4241,"lon":-98.4936},{"id":"ny-manhattan","name":"Manhattan","state":"NY","lat":40.7834,"lon":-73.9663},{"id":"ca-san-diego","name":"San Diego","state":"CA","lat":32.7157,"lon":-117.1647},{"id":"ny-the-bronx","name":"The Bronx","state":"NY","lat":40.8499,"lon":-73.8664},{"id":"tx-dallas","name":"Dallas","state":"TX","lat":32.7831,"lon":-96.8067},{"id":"fl-jacksonville","name":"Jacksonville","state":"FL","lat":30.3322,"lon":-81.6556},{"id":"tx-fort-worth","name":"Fort Worth","state":"TX","lat":32.7254,"lon":-97.3208},{"id":"ca-san-jose","name":"San Jose","state":"CA","lat":37.3394,"lon":-121.895},{"id":"tx-austin","name":"Austin","state":"TX","lat":30.2672,"lon":-97.7431},{"id":"oh-columbus","name":"Columbus","state":"OH","lat":39.9612,"lon":-82.9988},{"id":"nc-charlotte","name":"Charlotte","state":"NC","lat":35.2271,"lon":-80.8431},{"id":"in-indianapolis","name":"Indianapolis","state":"IN","lat":39.7684,"lon":-86.158},{"id":"ca-san-francisco","name":"San Francisco","state":"CA","lat":37.7749,"lon":-122.4194},{"id":"wa-seattle","name":"Seattle","state":"WA","lat":47.6062,"lon":-122.3321},{"id":"co-denver","name":"Denver","state":"CO","lat":39.7392,"lon":-104.9847},{"id":"dc-washington","name":"Washington","state":"DC","lat":38.8951,"lon":-77.0364},{"id":"tn-nashville","name":"Nashville","state":"TN","lat":36.1659,"lon":-86.7844},{"id":"ok-oklahoma-city","name":"Oklahoma City","state":"OK","lat":35.4676,"lon":-97.5164},{"id":"tx-el-paso","name":"El Paso","state":"TX","lat":31.7587,"lon":-106.4869},{"id":"ma-boston","name":"Boston","state":"MA","lat":42.3584,"lon":-71.0598},{"id":"or-portland","name":"Portland","state":"OR","lat":45.5234,"lon":-122.6762},{"id":"mi-detroit","name":"Detroit","state":"MI","lat":42.3314,"lon":-83.0457},{"id":"nv-las-vegas","name":"Las Vegas","state":"NV","lat":36.175,"lon":-115.1372},{"id":"tn-new-south-memphis","name":"New South Memphis","state":"TN","lat":35.0868,"lon":-90.0568},{"id":"tn-memphis","name":"Memphis","state":"TN","lat":35.1495,"lon":-90.049},{"id":"ky-louisville","name":"Louisville","state":"KY","lat":38.2542,"lon":-85.7594},{"id":"md-baltimore","name":"Baltimore","state":"MD","lat":39.2904,"lon":-76.6122},{"id":"ma-south-boston","name":"South Boston","state":"MA","lat":42.3334,"lon":-71.0495},{"id":"nm-albuquerque","name":"Albuquerque","state":"NM","lat":35.0845,"lon":-106.6511},{"id":"wi-milwaukee","name":"Milwaukee","state":"WI","lat":43.0389,"lon":-87.9065},{"id":"az-tucson","name":"Tucson","state":"AZ","lat":32.2217,"lon":-110.9265},{"id":"ca-fresno","name":"Fresno","state":"CA","lat":36.7477,"lon":-119.7724},{"id":"ca-sacramento","name":"Sacramento","state":"CA","lat":38.5816,"lon":-121.4944},{"id":"ga-atlanta","name":"Atlanta","state":"GA","lat":33.749,"lon":-84.388},{"id":"fl-miami","name":"Miami","state":"FL","lat":25.7743,"lon":-80.1937},{"id":"ne-omaha","name":"Omaha","state":"NE","lat":41.2563,"lon":-95.9404},{"id":"nc-raleigh","name":"Raleigh","state":"NC","lat":35.7721,"lon":-78.6386},{"id":"mo-kansas-city","name":"Kansas City","state":"MO","lat":39.0997,"lon":-94.5786},{"id":"ca-long-beach","name":"Long Beach","state":"CA","lat":33.767,"lon":-118.1892},{"id":"az-mesa","name":"Mesa","state":"AZ","lat":33.4223,"lon":-111.8226},{"id":"ny-staten-island","name":"Staten Island","state":"NY","lat":40.5623,"lon":-74.1399},{"id":"co-colorado-springs","name":"Colorado Springs","state":"CO","lat":38.8339,"lon":-104.8214},{"id":"va-virginia-beach","name":"Virginia Beach","state":"VA","lat":36.8529,"lon":-75.978},{"id":"ca-oakland","name":"Oakland","state":"CA","lat":37.8044,"lon":-122.2708},{"id":"fl-tampa","name":"Tampa","state":"FL","lat":27.9475,"lon":-82.4584},{"id":"ok-tulsa","name":"Tulsa","state":"OK","lat":36.154,"lon":-95.9928},{"id":"mn-minneapolis","name":"Minneapolis","state":"MN","lat":44.98,"lon":-93.2638},{"id":"ks-wichita","name":"Wichita","state":"KS","lat":37.6922,"lon":-97.3375},{"id":"tx-arlington","name":"Arlington","state":"TX","lat":32.7357,"lon":-97.1081},{"id":"ca-bakersfield","name":"Bakersfield","state":"CA","lat":35.3733,"lon":-119.0187},{"id":"oh-cleveland","name":"Cleveland","state":"OH","lat":41.4995,"lon":-81.6954},{"id":"la-new-orleans","name":"New Orleans","state":"LA","lat":29.9547,"lon":-90.0751},{"id":"co-aurora","name":"Aurora","state":"CO","lat":39.7294,"lon":-104.8319},{"id":"hi-honolulu","name":"Honolulu","state":"HI","lat":21.3069,"lon":-157.8583},{"id":"ca-anaheim","name":"Anaheim","state":"CA","lat":33.8353,"lon":-117.9145},{"id":"nc-west-raleigh","name":"West Raleigh","state":"NC","lat":35.7868,"lon":-78.6639},{"id":"fl-orlando","name":"Orlando","state":"FL","lat":28.5383,"lon":-81.3792},{"id":"ky-lexington","name":"Lexington","state":"KY","lat":37.9887,"lon":-84.4777},{"id":"ca-riverside","name":"Riverside","state":"CA","lat":33.9534,"lon":-117.3962},{"id":"tx-corpus-christi","name":"Corpus Christi","state":"TX","lat":27.8006,"lon":-97.3964},{"id":"ky-lexington-fayette","name":"Lexington-Fayette","state":"KY","lat":38.0498,"lon":-84.4586},{"id":"oh-cincinnati","name":"Cincinnati","state":"OH","lat":39.1271,"lon":-84.5144},{"id":"ca-santa-ana","name":"Santa Ana","state":"CA","lat":33.7456,"lon":-117.8678},{"id":"ca-stockton","name":"Stockton","state":"CA","lat":37.9577,"lon":-121.2908},{"id":"pa-pittsburgh","name":"Pittsburgh","state":"PA","lat":40.4406,"lon":-79.9959},{"id":"mn-saint-paul","name":"Saint Paul","state":"MN","lat":44.9444,"lon":-93.0933},{"id":"ne-lincoln","name":"Lincoln","state":"NE","lat":40.8,"lon":-96.667},{"id":"ak-anchorage","name":"Anchorage","state":"AK","lat":61.2181,"lon":-149.9003},{"id":"ky-meads","name":"Meads","state":"KY","lat":38.4126,"lon":-82.7091},{"id":"nv-henderson","name":"Henderson","state":"NV","lat":36.0397,"lon":-114.9819},{"id":"nc-greensboro","name":"Greensboro","state":"NC","lat":36.0726,"lon":-79.792},{"id":"tx-plano","name":"Plano","state":"TX","lat":33.0198,"lon":-96.6989},{"id":"nj-newark","name":"Newark","state":"NJ","lat":40.7357,"lon":-74.1724},{"id":"wi-madison","name":"Madison","state":"WI","lat":43.0731,"lon":-89.4012},{"id":"mo-st-louis","name":"St. Louis","state":"MO","lat":38.6273,"lon":-90.1979},{"id":"ca-chula-vista","name":"Chula Vista","state":"CA","lat":32.6401,"lon":-117.0842},{"id":"oh-toledo","name":"Toledo","state":"OH","lat":41.6639,"lon":-83.5552},{"id":"nj-jersey-city","name":"Jersey City","state":"NJ","lat":40.7282,"lon":-74.0776},{"id":"nv-reno","name":"Reno","state":"NV","lat":39.5296,"lon":-119.8138},{"id":"az-chandler","name":"Chandler","state":"AZ","lat":33.3062,"lon":-111.8413},{"id":"in-fort-wayne","name":"Fort Wayne","state":"IN","lat":41.1306,"lon":-85.1289},{"id":"ny-buffalo","name":"Buffalo","state":"NY","lat":42.8865,"lon":-78.8784},{"id":"nc-durham","name":"Durham","state":"NC","lat":35.994,"lon":-78.8986},{"id":"fl-st-petersburg","name":"St. Petersburg","state":"FL","lat":27.7709,"lon":-82.6793},{"id":"ca-irvine","name":"Irvine","state":"CA","lat":33.6695,"lon":-117.8231},{"id":"tx-laredo","name":"Laredo","state":"TX","lat":27.5064,"lon":-99.5075},{"id":"tx-lubbock","name":"Lubbock","state":"TX","lat":33.5779,"lon":-101.8552},{"id":"az-gilbert","name":"Gilbert","state":"AZ","lat":33.3528,"lon":-111.789},{"id":"wa-tri-cities","name":"Tri-Cities","state":"WA","lat":46.2454,"lon":-119.1962},{"id":"nc-winston-salem","name":"Winston-Salem","state":"NC","lat":36.0999,"lon":-80.2442},{"id":"az-glendale","name":"Glendale","state":"AZ","lat":33.5386,"lon":-112.186},{"id":"va-norfolk","name":"Norfolk","state":"VA","lat":36.8468,"lon":-76.2852},{"id":"fl-hialeah","name":"Hialeah","state":"FL","lat":25.8576,"lon":-80.2781},{"id":"tx-garland","name":"Garland","state":"TX","lat":32.9126,"lon":-96.6389},{"id":"az-scottsdale","name":"Scottsdale","state":"AZ","lat":33.5092,"lon":-111.899},{"id":"tx-irving","name":"Irving","state":"TX","lat":32.814,"lon":-96.9489},{"id":"id-boise","name":"Boise","state":"ID","lat":43.6135,"lon":-116.2035},{"id":"va-chesapeake","name":"Chesapeake","state":"VA","lat":36.819,"lon":-76.2749},{"id":"nv-north-las-vegas","name":"North Las Vegas","state":"NV","lat":36.1989,"lon":-115.1175},{"id":"ca-fremont","name":"Fremont","state":"CA","lat":37.5483,"lon":-121.9886},{"id":"wa-spokane","name":"Spokane","state":"WA","lat":47.6597,"lon":-117.4291},{"id":"la-baton-rouge","name":"Baton Rouge","state":"LA","lat":30.4433,"lon":-91.1875},{"id":"ny-upper-west-side","name":"Upper West Side","state":"NY","lat":40.7871,"lon":-73.9754},{"id":"va-richmond","name":"Richmond","state":"VA","lat":37.5538,"lon":-77.4603},{"id":"nv-paradise","name":"Paradise","state":"NV","lat":36.0972,"lon":-115.1467},{"id":"wa-tacoma","name":"Tacoma","state":"WA","lat":47.2529,"lon":-122.4443},{"id":"ny-jamaica","name":"Jamaica","state":"NY","lat":40.6915,"lon":-73.8057},{"id":"ca-san-bernardino","name":"San Bernardino","state":"CA","lat":34.1083,"lon":-117.2898},{"id":"ut-salt-lake-city","name":"Salt Lake City","state":"UT","lat":40.7608,"lon":-111.8911},{"id":"al-huntsville","name":"Huntsville","state":"AL","lat":34.7304,"lon":-86.5859},{"id":"ia-des-moines","name":"Des Moines","state":"IA","lat":41.6005,"lon":-93.6091},{"id":"ca-fontana","name":"Fontana","state":"CA","lat":34.0922,"lon":-117.4351},{"id":"ca-modesto","name":"Modesto","state":"CA","lat":37.6391,"lon":-120.9969},{"id":"ny-rochester","name":"Rochester","state":"NY","lat":43.1548,"lon":-77.6156},{"id":"az-maryvale","name":"Maryvale","state":"AZ","lat":33.502,"lon":-112.1776},{"id":"va-arlington","name":"Arlington","state":"VA","lat":38.881,"lon":-77.1043},{"id":"ca-oxnard","name":"Oxnard","state":"CA","lat":34.1975,"lon":-119.177},{"id":"ga-columbus","name":"Columbus","state":"GA","lat":32.461,"lon":-84.9877},{"id":"ma-worcester","name":"Worcester","state":"MA","lat":42.2626,"lon":-71.8023},{"id":"ca-moreno-valley","name":"Moreno Valley","state":"CA","lat":33.9375,"lon":-117.2306},{"id":"ar-little-rock","name":"Little Rock","state":"AR","lat":34.7465,"lon":-92.2896},{"id":"nc-fayetteville","name":"Fayetteville","state":"NC","lat":35.0527,"lon":-78.8784},{"id":"ca-huntington-beach","name":"Huntington Beach","state":"CA","lat":33.6603,"lon":-117.9992},{"id":"fl-tallahassee","name":"Tallahassee","state":"FL","lat":30.4383,"lon":-84.2807},{"id":"ny-yonkers","name":"Yonkers","state":"NY","lat":40.9304,"lon":-73.8979},{"id":"ca-glendale","name":"Glendale","state":"CA","lat":34.1425,"lon":-118.2551},{"id":"tx-cypress","name":"Cypress","state":"TX","lat":29.9691,"lon":-95.6972},{"id":"il-aurora","name":"Aurora","state":"IL","lat":41.7606,"lon":-88.3201},{"id":"tx-amarillo","name":"Amarillo","state":"TX","lat":35.222,"lon":-101.8313},{"id":"oh-akron","name":"Akron","state":"OH","lat":41.0814,"lon":-81.519},{"id":"wa-vancouver","name":"Vancouver","state":"WA","lat":45.6387,"lon":-122.6615},{"id":"al-birmingham","name":"Birmingham","state":"AL","lat":33.5207,"lon":-86.8025},{"id":"al-montgomery","name":"Montgomery","state":"AL","lat":32.3668,"lon":-86.3},{"id":"mi-grand-rapids","name":"Grand Rapids","state":"MI","lat":42.9634,"lon":-85.6681},{"id":"az-peoria","name":"Peoria","state":"AZ","lat":33.5806,"lon":-112.2374},{"id":"ri-providence","name":"Providence","state":"RI","lat":41.824,"lon":-71.4128},{"id":"tn-knoxville","name":"Knoxville","state":"TN","lat":35.9606,"lon":-83.9207},{"id":"nv-sunrise-manor","name":"Sunrise Manor","state":"NV","lat":36.2111,"lon":-115.0731},{"id":"tx-grand-prairie","name":"Grand Prairie","state":"TX","lat":32.746,"lon":-96.9978},{"id":"la-shreveport","name":"Shreveport","state":"LA","lat":32.5251,"lon":-93.7502},{"id":"tx-brownsville","name":"Brownsville","state":"TX","lat":25.9017,"lon":-97.4975},{"id":"ks-overland-park","name":"Overland Park","state":"KS","lat":38.9822,"lon":-94.6708},{"id":"va-newport-news","name":"Newport News","state":"VA","lat":36.9804,"lon":-76.4297},{"id":"al-mobile","name":"Mobile","state":"AL","lat":30.6944,"lon":-88.043},{"id":"fl-fort-lauderdale","name":"Fort Lauderdale","state":"FL","lat":26.1223,"lon":-80.1434},{"id":"ca-santa-clarita","name":"Santa Clarita","state":"CA","lat":34.3917,"lon":-118.5426},{"id":"tn-chattanooga","name":"Chattanooga","state":"TN","lat":35.0456,"lon":-85.3097},{"id":"ny-east-flatbush","name":"East Flatbush","state":"NY","lat":40.6537,"lon":-73.9304},{"id":"nv-spring-valley","name":"Spring Valley","state":"NV","lat":36.108,"lon":-115.245},{"id":"ca-santa-rosa","name":"Santa Rosa","state":"CA","lat":38.4405,"lon":-122.7144},{"id":"or-eugene","name":"Eugene","state":"OR","lat":44.0521,"lon":-123.0867},{"id":"az-tempe","name":"Tempe","state":"AZ","lat":33.4148,"lon":-111.9093},{"id":"ca-oceanside","name":"Oceanside","state":"CA","lat":33.1959,"lon":-117.3795},{"id":"or-salem","name":"Salem","state":"OR","lat":44.9429,"lon":-123.0351},{"id":"ca-garden-grove","name":"Garden Grove","state":"CA","lat":33.7739,"lon":-117.9415},{"id":"ca-rancho-cucamonga","name":"Rancho Cucamonga","state":"CA","lat":34.1064,"lon":-117.5931},{"id":"fl-cape-coral","name":"Cape Coral","state":"FL","lat":26.5629,"lon":-81.9495},{"id":"ny-east-new-york","name":"East New York","state":"NY","lat":40.6668,"lon":-73.8824},{"id":"sd-sioux-falls","name":"Sioux Falls","state":"SD","lat":43.5437,"lon":-96.728},{"id":"ca-ontario","name":"Ontario","state":"CA","lat":34.0633,"lon":-117.6509},{"id":"co-fort-collins","name":"Fort Collins","state":"CO","lat":40.5853,"lon":-105.0844},{"id":"mo-springfield","name":"Springfield","state":"MO","lat":37.2153,"lon":-93.2982},{"id":"ca-hollywood","name":"Hollywood","state":"CA","lat":34.0983,"lon":-118.3267},{"id":"ca-elk-grove","name":"Elk Grove","state":"CA","lat":38.4088,"lon":-121.3716},{"id":"tn-clarksville","name":"Clarksville","state":"TN","lat":36.5298,"lon":-87.3594},{"id":"fl-pembroke-pines","name":"Pembroke Pines","state":"FL","lat":26.0032,"lon":-80.2239},{"id":"az-deer-valley","name":"Deer Valley","state":"AZ","lat":33.6839,"lon":-112.1349},{"id":"tn-murfreesboro","name":"Murfreesboro","state":"TN","lat":35.8456,"lon":-86.3903},{"id":"fl-port-saint-lucie","name":"Port Saint Lucie","state":"FL","lat":27.2939,"lon":-80.3503},{"id":"ca-corona","name":"Corona","state":"CA","lat":33.8753,"lon":-117.5664},{"id":"tx-mckinney","name":"McKinney","state":"TX","lat":33.1976,"lon":-96.6153},{"id":"ca-lancaster","name":"Lancaster","state":"CA","lat":34.698,"lon":-118.1367},{"id":"nc-cary","name":"Cary","state":"NC","lat":35.7915,"lon":-78.7811},{"id":"va-alexandria","name":"Alexandria","state":"VA","lat":38.8048,"lon":-77.0469},{"id":"az-tempe-junction","name":"Tempe Junction","state":"AZ","lat":33.4142,"lon":-111.9435},{"id":"ca-palmdale","name":"Palmdale","state":"CA","lat":34.5794,"lon":-118.1165},{"id":"ca-hayward","name":"Hayward","state":"CA","lat":37.6688,"lon":-122.0808},{"id":"ca-salinas","name":"Salinas","state":"CA","lat":36.6777,"lon":-121.6555},{"id":"ca-sunnyvale","name":"Sunnyvale","state":"CA","lat":37.3688,"lon":-122.0363},{"id":"tx-frisco","name":"Frisco","state":"TX","lat":33.1507,"lon":-96.8236},{"id":"ma-springfield","name":"Springfield","state":"MA","lat":42.1015,"lon":-72.5898},{"id":"tn-east-chattanooga","name":"East Chattanooga","state":"TN","lat":35.0654,"lon":-85.2491},{"id":"tx-pasadena","name":"Pasadena","state":"TX","lat":29.6911,"lon":-95.2091},{"id":"ms-jackson","name":"Jackson","state":"MS","lat":32.2988,"lon":-90.1848},{"id":"ca-pomona","name":"Pomona","state":"CA","lat":34.0553,"lon":-117.7523},{"id":"ks-kansas-city","name":"Kansas City","state":"KS","lat":39.1142,"lon":-94.6275},{"id":"ny-washington-heights","name":"Washington Heights","state":"NY","lat":40.8501,"lon":-73.9354},{"id":"co-lakewood","name":"Lakewood","state":"CO","lat":39.7047,"lon":-105.0814},{"id":"ca-escondido","name":"Escondido","state":"CA","lat":33.1192,"lon":-117.0864},{"id":"ny-astoria","name":"Astoria","state":"NY","lat":40.7721,"lon":-73.9301},{"id":"fl-hollywood","name":"Hollywood","state":"FL","lat":26.0112,"lon":-80.1495},{"id":"ny-borough-park","name":"Borough Park","state":"NY","lat":40.634,"lon":-73.9968},{"id":"ca-valencia","name":"Valencia","state":"CA","lat":34.4436,"lon":-118.6095},{"id":"il-rockford","name":"Rockford","state":"IL","lat":42.2711,"lon":-89.094},{"id":"va-east-hampton","name":"East Hampton","state":"VA","lat":37.0374,"lon":-76.3316},{"id":"il-joliet","name":"Joliet","state":"IL","lat":41.5252,"lon":-88.0834},{"id":"ga-savannah","name":"Savannah","state":"GA","lat":32.0835,"lon":-81.0998},{"id":"nj-paterson","name":"Paterson","state":"NJ","lat":40.9168,"lon":-74.1718},{"id":"ct-bridgeport","name":"Bridgeport","state":"CT","lat":41.1792,"lon":-73.1894},{"id":"il-naperville","name":"Naperville","state":"IL","lat":41.7859,"lon":-88.1473},{"id":"fl-gainesville","name":"Gainesville","state":"FL","lat":29.6516,"lon":-82.3248},{"id":"tx-mesquite","name":"Mesquite","state":"TX","lat":32.7668,"lon":-96.5992},{"id":"ny-syracuse","name":"Syracuse","state":"NY","lat":43.0481,"lon":-76.1474},{"id":"ca-torrance","name":"Torrance","state":"CA","lat":33.8359,"lon":-118.3406},{"id":"az-surprise","name":"Surprise","state":"AZ","lat":33.6306,"lon":-112.3332},{"id":"la-metairie-terrace","name":"Metairie Terrace","state":"LA","lat":29.9785,"lon":-90.164},{"id":"sc-columbia","name":"Columbia","state":"SC","lat":34.0007,"lon":-81.0348},{"id":"ca-pasadena","name":"Pasadena","state":"CA","lat":34.1478,"lon":-118.1445},{"id":"ca-orange","name":"Orange","state":"CA","lat":33.7878,"lon":-117.8531},{"id":"ca-fullerton","name":"Fullerton","state":"CA","lat":33.8703,"lon":-117.9253},{"id":"tx-killeen","name":"Killeen","state":"TX","lat":31.1171,"lon":-97.7278},{"id":"tx-mcallen","name":"McAllen","state":"TX","lat":26.2034,"lon":-98.23},{"id":"wa-bellevue","name":"Bellevue","state":"WA","lat":47.6104,"lon":-122.2007},{"id":"la-metairie","name":"Metairie","state":"LA","lat":29.9841,"lon":-90.1529},{"id":"va-hampton","name":"Hampton","state":"VA","lat":37.0299,"lon":-76.3452},{"id":"fl-miramar","name":"Miramar","state":"FL","lat":25.9873,"lon":-80.2323},{"id":"ca-van-nuys","name":"Van Nuys","state":"CA","lat":34.1867,"lon":-118.449},{"id":"ut-west-valley-city","name":"West Valley City","state":"UT","lat":40.6916,"lon":-112.0011},{"id":"oh-dayton","name":"Dayton","state":"OH","lat":39.7589,"lon":-84.1916},{"id":"ks-olathe","name":"Olathe","state":"KS","lat":38.8814,"lon":-94.8191},{"id":"mi-warren","name":"Warren","state":"MI","lat":42.4904,"lon":-83.013},{"id":"co-thornton","name":"Thornton","state":"CO","lat":39.868,"lon":-104.9719},{"id":"tx-carrollton","name":"Carrollton","state":"TX","lat":32.9537,"lon":-96.8903},{"id":"sc-charleston","name":"Charleston","state":"SC","lat":32.7763,"lon":-79.9327},{"id":"tx-midland","name":"Midland","state":"TX","lat":31.9974,"lon":-102.0779},{"id":"tx-waco","name":"Waco","state":"TX","lat":31.5493,"lon":-97.1467},{"id":"mi-sterling-heights","name":"Sterling Heights","state":"MI","lat":42.5803,"lon":-83.0302},{"id":"tx-denton","name":"Denton","state":"TX","lat":33.2148,"lon":-97.1331},{"id":"ia-cedar-rapids","name":"Cedar Rapids","state":"IA","lat":42.0083,"lon":-91.6441},{"id":"ct-new-haven","name":"New Haven","state":"CT","lat":41.3081,"lon":-72.9282},{"id":"ca-roseville","name":"Roseville","state":"CA","lat":38.7521,"lon":-121.288},{"id":"ca-visalia","name":"Visalia","state":"CA","lat":36.3302,"lon":-119.2921},{"id":"fl-coral-springs","name":"Coral Springs","state":"FL","lat":26.2712,"lon":-80.2706},{"id":"ca-thousand-oaks","name":"Thousand Oaks","state":"CA","lat":34.1706,"lon":-118.8376},{"id":"mo-columbia","name":"Columbia","state":"MO","lat":38.9517,"lon":-92.3341},{"id":"nj-elizabeth","name":"Elizabeth","state":"NJ","lat":40.664,"lon":-74.2107},{"id":"ct-stamford","name":"Stamford","state":"CT","lat":41.0534,"lon":-73.5387},{"id":"ca-concord","name":"Concord","state":"CA","lat":37.978,"lon":-122.0311},{"id":"ok-norman","name":"Norman","state":"OK","lat":35.2226,"lon":-97.4395},{"id":"az-alhambra","name":"Alhambra","state":"AZ","lat":33.4984,"lon":-112.1343},{"id":"ga-athens","name":"Athens","state":"GA","lat":33.9609,"lon":-83.3779},{"id":"wa-kent","name":"Kent","state":"WA","lat":47.3809,"lon":-122.2348},{"id":"ca-simi-valley","name":"Simi Valley","state":"CA","lat":34.2694,"lon":-118.7815},{"id":"ca-east-los-angeles","name":"East Los Angeles","state":"CA","lat":34.0239,"lon":-118.172},{"id":"ca-santa-clara","name":"Santa Clara","state":"CA","lat":37.3541,"lon":-121.9552},{"id":"ny-sunset-park","name":"Sunset Park","state":"NY","lat":40.6455,"lon":-74.0124},{"id":"ks-topeka","name":"Topeka","state":"KS","lat":39.0483,"lon":-95.678},{"id":"tx-abilene","name":"Abilene","state":"TX","lat":32.4487,"lon":-99.7331},{"id":"ca-koreatown","name":"Koreatown","state":"CA","lat":34.0578,"lon":-118.3009},{"id":"ny-sheepshead-bay","name":"Sheepshead Bay","state":"NY","lat":40.5912,"lon":-73.9446},{"id":"ny-amherst","name":"Amherst","state":"NY","lat":42.9784,"lon":-78.7998},{"id":"ca-victorville","name":"Victorville","state":"CA","lat":34.5361,"lon":-117.2912},{"id":"ca-vallejo","name":"Vallejo","state":"CA","lat":38.1041,"lon":-122.2566},{"id":"la-lafayette","name":"Lafayette","state":"LA","lat":30.2241,"lon":-92.0198},{"id":"ca-chico","name":"Chico","state":"CA","lat":39.7285,"lon":-121.8375},{"id":"ct-north-stamford","name":"North Stamford","state":"CT","lat":41.1382,"lon":-73.5435},{"id":"ct-hartford","name":"Hartford","state":"CT","lat":41.7637,"lon":-72.6851},{"id":"ca-berkeley","name":"Berkeley","state":"CA","lat":37.8716,"lon":-122.2728},{"id":"fl-west-palm-beach","name":"West Palm Beach","state":"FL","lat":26.7153,"lon":-80.0534},{"id":"pa-allentown","name":"Allentown","state":"PA","lat":40.6084,"lon":-75.4902},{"id":"in-evansville","name":"Evansville","state":"IN","lat":37.9748,"lon":-87.5559},{"id":"fl-palm-bay","name":"Palm Bay","state":"FL","lat":28.0345,"lon":-80.5887},{"id":"nd-fargo","name":"Fargo","state":"ND","lat":46.8772,"lon":-96.7898},{"id":"fl-clearwater","name":"Clearwater","state":"FL","lat":27.9658,"lon":-82.8001},{"id":"mo-independence","name":"Independence","state":"MO","lat":39.0911,"lon":-94.4155},{"id":"mt-billings","name":"Billings","state":"MT","lat":45.7833,"lon":-108.5007},{"id":"mi-ann-arbor","name":"Ann Arbor","state":"MI","lat":42.2776,"lon":-83.7409},{"id":"ca-el-monte","name":"El Monte","state":"CA","lat":34.0686,"lon":-118.0276},{"id":"ny-harlem","name":"Harlem","state":"NY","lat":40.8079,"lon":-73.9454},{"id":"co-westminster","name":"Westminster","state":"CO","lat":39.8366,"lon":-105.0372},{"id":"tx-round-rock","name":"Round Rock","state":"TX","lat":30.5083,"lon":-97.6789},{"id":"nc-wilmington","name":"Wilmington","state":"NC","lat":34.2356,"lon":-77.946},{"id":"ny-east-harlem","name":"East Harlem","state":"NY","lat":40.7947,"lon":-73.9425},{"id":"co-arvada","name":"Arvada","state":"CO","lat":39.8028,"lon":-105.0875},{"id":"tx-beaumont","name":"Beaumont","state":"TX","lat":30.0861,"lon":-94.1018},{"id":"ut-provo","name":"Provo","state":"UT","lat":40.2338,"lon":-111.6585},{"id":"il-peoria","name":"Peoria","state":"IL","lat":40.6936,"lon":-89.589},{"id":"ca-carlsbad","name":"Carlsbad","state":"CA","lat":33.1581,"lon":-117.3506},{"id":"tx-odessa","name":"Odessa","state":"TX","lat":31.8457,"lon":-102.3676},{"id":"il-springfield","name":"Springfield","state":"IL","lat":39.8017,"lon":-89.6437},{"id":"ca-downey","name":"Downey","state":"CA","lat":33.94,"lon":-118.1326},{"id":"ny-elmhurst","name":"Elmhurst","state":"NY","lat":40.7365,"lon":-73.8779},{"id":"ca-costa-mesa","name":"Costa Mesa","state":"CA","lat":33.6411,"lon":-117.9187},{"id":"fl-miami-gardens","name":"Miami Gardens","state":"FL","lat":25.942,"lon":-80.2456},{"id":"il-north-peoria","name":"North Peoria","state":"IL","lat":40.7175,"lon":-89.5843},{"id":"ca-fairfield","name":"Fairfield","state":"CA","lat":38.2494,"lon":-122.04},{"id":"mi-lansing","name":"Lansing","state":"MI","lat":42.7325,"lon":-84.5555},{"id":"ny-bushwick","name":"Bushwick","state":"NY","lat":40.6943,"lon":-73.9188},{"id":"ny-gravesend","name":"Gravesend","state":"NY","lat":40.5976,"lon":-73.9651},{"id":"mn-rochester","name":"Rochester","state":"MN","lat":44.0216,"lon":-92.4699},{"id":"il-elgin","name":"Elgin","state":"IL","lat":42.0373,"lon":-88.2812},{"id":"ut-west-jordan","name":"West Jordan","state":"UT","lat":40.6097,"lon":-111.9391},{"id":"ca-inglewood","name":"Inglewood","state":"CA","lat":33.9617,"lon":-118.3531},{"id":"al-tuscaloosa","name":"Tuscaloosa","state":"AL","lat":33.2098,"lon":-87.5692},{"id":"tx-richardson","name":"Richardson","state":"TX","lat":32.9482,"lon":-96.7297},{"id":"ma-lowell","name":"Lowell","state":"MA","lat":42.6334,"lon":-71.3162},{"id":"mo-east-independence","name":"East Independence","state":"MO","lat":39.0956,"lon":-94.3552},{"id":"or-gresham","name":"Gresham","state":"OR","lat":45.4982,"lon":-122.4315},{"id":"ca-antioch","name":"Antioch","state":"CA","lat":38.0049,"lon":-121.8058},{"id":"ma-cambridge","name":"Cambridge","state":"MA","lat":42.3751,"lon":-71.1056},{"id":"nc-high-point","name":"High Point","state":"NC","lat":35.9557,"lon":-80.0053},{"id":"nh-manchester","name":"Manchester","state":"NH","lat":42.9956,"lon":-71.4548},{"id":"ca-temecula","name":"Temecula","state":"CA","lat":33.4936,"lon":-117.1484},{"id":"ca-murrieta","name":"Murrieta","state":"CA","lat":33.5539,"lon":-117.2139},{"id":"co-centennial","name":"Centennial","state":"CO","lat":39.5792,"lon":-104.8769},{"id":"ca-richmond","name":"Richmond","state":"CA","lat":37.9358,"lon":-122.3478},{"id":"ny-corona","name":"Corona","state":"NY","lat":40.7471,"lon":-73.8601},{"id":"co-pueblo","name":"Pueblo","state":"CO","lat":38.2544,"lon":-104.6091},{"id":"tx-pearland","name":"Pearland","state":"TX","lat":29.5636,"lon":-95.2861},{"id":"ct-waterbury","name":"Waterbury","state":"CT","lat":41.5581,"lon":-73.0515},{"id":"co-greeley","name":"Greeley","state":"CO","lat":40.4233,"lon":-104.7091},{"id":"ca-west-covina","name":"West Covina","state":"CA","lat":34.0686,"lon":-117.939},{"id":"nv-enterprise","name":"Enterprise","state":"NV","lat":36.0252,"lon":-115.2419},{"id":"sc-north-charleston","name":"North Charleston","state":"SC","lat":32.8546,"lon":-79.9748},{"id":"wa-everett","name":"Everett","state":"WA","lat":47.979,"lon":-122.2021},{"id":"tx-college-station","name":"College Station","state":"TX","lat":30.628,"lon":-96.3344},{"id":"fl-pompano-beach","name":"Pompano Beach","state":"FL","lat":26.2379,"lon":-80.1248},{"id":"ga-south-fulton","name":"South Fulton","state":"GA","lat":33.5926,"lon":-84.6729},{"id":"ca-norwalk","name":"Norwalk","state":"CA","lat":33.9022,"lon":-118.0817},{"id":"co-boulder","name":"Boulder","state":"CO","lat":40.015,"lon":-105.2706},{"id":"ok-broken-arrow","name":"Broken Arrow","state":"OK","lat":36.0526,"lon":-95.7908},{"id":"ca-daly-city","name":"Daly City","state":"CA","lat":37.7058,"lon":-122.4619},{"id":"ga-sandy-springs","name":"Sandy Springs","state":"GA","lat":33.9243,"lon":-84.3785},{"id":"ca-burbank","name":"Burbank","state":"CA","lat":34.1808,"lon":-118.309},{"id":"wi-green-bay","name":"Green Bay","state":"WI","lat":44.5192,"lon":-88.0198},{"id":"ca-santa-maria","name":"Santa Maria","state":"CA","lat":34.953,"lon":-120.4357},{"id":"ca-universal-city","name":"Universal City","state":"CA","lat":34.1389,"lon":-118.3534},{"id":"tx-wichita-falls","name":"Wichita Falls","state":"TX","lat":33.9137,"lon":-98.4934},{"id":"fl-lakeland","name":"Lakeland","state":"FL","lat":28.0395,"lon":-81.9498},{"id":"ca-clovis","name":"Clovis","state":"CA","lat":36.8252,"lon":-119.7029},{"id":"tx-lewisville","name":"Lewisville","state":"TX","lat":33.0462,"lon":-96.9942},{"id":"tx-tyler","name":"Tyler","state":"TX","lat":32.3513,"lon":-95.3011},{"id":"ca-el-cajon","name":"El Cajon","state":"CA","lat":32.7948,"lon":-116.9625},{"id":"ca-san-mateo","name":"San Mateo","state":"CA","lat":37.563,"lon":-122.3255},{"id":"fl-brandon","name":"Brandon","state":"FL","lat":27.9378,"lon":-82.2859},{"id":"ca-rialto","name":"Rialto","state":"CA","lat":34.1064,"lon":-117.3703},{"id":"ia-davenport","name":"Davenport","state":"IA","lat":41.5236,"lon":-90.5776},{"id":"nj-edison","name":"Edison","state":"NJ","lat":40.5187,"lon":-74.4121},{"id":"or-hillsboro","name":"Hillsboro","state":"OR","lat":45.5229,"lon":-122.9898},{"id":"nm-las-cruces","name":"Las Cruces","state":"NM","lat":32.3123,"lon":-106.7783},{"id":"in-south-bend","name":"South Bend","state":"IN","lat":41.6834,"lon":-86.25},{"id":"ny-albany","name":"Albany","state":"NY","lat":42.6526,"lon":-73.7562},{"id":"ma-new-bedford","name":"New Bedford","state":"MA","lat":41.6353,"lon":-70.927},{"id":"ca-vista","name":"Vista","state":"CA","lat":33.2,"lon":-117.2425},{"id":"fl-davie","name":"Davie","state":"FL","lat":26.0629,"lon":-80.2331},{"id":"ca-chinatown","name":"Chinatown","state":"CA","lat":37.7966,"lon":-122.4086},{"id":"wa-renton","name":"Renton","state":"WA","lat":47.4829,"lon":-122.2171},{"id":"va-roanoke","name":"Roanoke","state":"VA","lat":37.271,"lon":-79.9414},{"id":"tx-san-angelo","name":"San Angelo","state":"TX","lat":31.4638,"lon":-100.437},{"id":"wi-kenosha","name":"Kenosha","state":"WI","lat":42.5847,"lon":-87.8212},{"id":"mi-clinton-township","name":"Clinton Township","state":"MI","lat":42.587,"lon":-82.9199},{"id":"md-columbia","name":"Columbia","state":"MD","lat":39.2404,"lon":-76.8394},{"id":"pa-erie","name":"Erie","state":"PA","lat":42.1292,"lon":-80.0851},{"id":"va-portsmouth-heights","name":"Portsmouth Heights","state":"VA","lat":36.821,"lon":-76.3688},{"id":"ny-richmond-hill","name":"Richmond Hill","state":"NY","lat":40.6998,"lon":-73.8312},{"id":"tx-alief","name":"Alief","state":"TX","lat":29.7111,"lon":-95.5963},{"id":"fl-spring-hill","name":"Spring Hill","state":"FL","lat":28.4769,"lon":-82.5255},{"id":"ca-compton","name":"Compton","state":"CA","lat":33.8959,"lon":-118.2201},{"id":"tx-league-city","name":"League City","state":"TX","lat":29.5074,"lon":-95.0949},{"id":"mi-flint","name":"Flint","state":"MI","lat":43.0125,"lon":-83.6875},{"id":"tx-allen","name":"Allen","state":"TX","lat":33.1032,"lon":-96.6706},{"id":"ma-dorchester","name":"Dorchester","state":"MA","lat":42.2973,"lon":-71.0745},{"id":"ca-mission-viejo","name":"Mission Viejo","state":"CA","lat":33.6,"lon":-117.672},{"id":"ca-vacaville","name":"Vacaville","state":"CA","lat":38.3566,"lon":-121.9877},{"id":"ca-ventura","name":"Ventura","state":"CA","lat":34.2783,"lon":-119.2932},{"id":"co-highlands-ranch","name":"Highlands Ranch","state":"CO","lat":39.5539,"lon":-104.9694},{"id":"ok-lawton","name":"Lawton","state":"OK","lat":34.6087,"lon":-98.3903},{"id":"or-beaverton","name":"Beaverton","state":"OR","lat":45.4871,"lon":-122.8037},{"id":"ca-south-gate","name":"South Gate","state":"CA","lat":33.9547,"lon":-118.212},{"id":"va-portsmouth","name":"Portsmouth","state":"VA","lat":36.8354,"lon":-76.2983},{"id":"nv-sparks","name":"Sparks","state":"NV","lat":39.5349,"lon":-119.7527},{"id":"az-yuma","name":"Yuma","state":"AZ","lat":32.7253,"lon":-114.6244},{"id":"ma-brockton","name":"Brockton","state":"MA","lat":42.0834,"lon":-71.0184},{"id":"mi-dearborn","name":"Dearborn","state":"MI","lat":42.3223,"lon":-83.1763},{"id":"wa-federal-way","name":"Federal Way","state":"WA","lat":47.3223,"lon":-122.3126},{"id":"mo-lees-summit","name":"Lee's Summit","state":"MO","lat":38.9108,"lon":-94.3822},{"id":"nc-asheville","name":"Asheville","state":"NC","lat":35.6009,"lon":-82.554},{"id":"wa-spokane-valley","name":"Spokane Valley","state":"WA","lat":47.6732,"lon":-117.2394},{"id":"ny-fordham","name":"Fordham","state":"NY","lat":40.8593,"lon":-73.8985},{"id":"mi-livonia","name":"Livonia","state":"MI","lat":42.3684,"lon":-83.3527},{"id":"ga-roswell","name":"Roswell","state":"GA","lat":34.0232,"lon":-84.3616},{"id":"ut-orem","name":"Orem","state":"UT","lat":40.2969,"lon":-111.6946},{"id":"ma-fall-river","name":"Fall River","state":"MA","lat":41.7015,"lon":-71.1551},{"id":"ks-lawrence","name":"Lawrence","state":"KS","lat":38.9717,"lon":-95.2352},{"id":"tx-the-woodlands","name":"The Woodlands","state":"TX","lat":30.158,"lon":-95.4894},{"id":"ny-west-albany","name":"West Albany","state":"NY","lat":42.6831,"lon":-73.7785},{"id":"wa-yakima","name":"Yakima","state":"WA","lat":46.6021,"lon":-120.5059},{"id":"ma-quincy","name":"Quincy","state":"MA","lat":42.2529,"lon":-71.0023},{"id":"ny-flatbush","name":"Flatbush","state":"NY","lat":40.6521,"lon":-73.959},{"id":"ca-hesperia","name":"Hesperia","state":"CA","lat":34.4264,"lon":-117.3009},{"id":"ca-carson","name":"Carson","state":"CA","lat":33.8314,"lon":-118.282},{"id":"fl-boca-raton","name":"Boca Raton","state":"FL","lat":26.3587,"lon":-80.0831},{"id":"ca-santa-monica","name":"Santa Monica","state":"CA","lat":34.0195,"lon":-118.4914},{"id":"ca-san-marcos","name":"San Marcos","state":"CA","lat":33.1434,"lon":-117.1661},{"id":"ca-boyle-heights","name":"Boyle Heights","state":"CA","lat":34.0339,"lon":-118.2053},{"id":"fl-plantation","name":"Plantation","state":"FL","lat":26.1342,"lon":-80.2318},{"id":"ma-lynn","name":"Lynn","state":"MA","lat":42.4668,"lon":-70.9495},{"id":"fl-miami-beach","name":"Miami Beach","state":"FL","lat":25.7906,"lon":-80.13},{"id":"ca-arden-arcade","name":"Arden-Arcade","state":"CA","lat":38.6025,"lon":-121.3785},{"id":"ca-westminster","name":"Westminster","state":"CA","lat":33.7592,"lon":-118.0067},{"id":"co-longmont","name":"Longmont","state":"CO","lat":40.1672,"lon":-105.1019},{"id":"ca-santa-barbara","name":"Santa Barbara","state":"CA","lat":34.4208,"lon":-119.6982},{"id":"ca-redding","name":"Redding","state":"CA","lat":40.5865,"lon":-122.3917},{"id":"ga-macon","name":"Macon","state":"GA","lat":32.8407,"lon":-83.6324},{"id":"id-meridian","name":"Meridian","state":"ID","lat":43.6121,"lon":-116.3915},{"id":"ca-san-leandro","name":"San Leandro","state":"CA","lat":37.7249,"lon":-122.1561},{"id":"nc-greenville","name":"Greenville","state":"NC","lat":35.6127,"lon":-77.3663},{"id":"ok-edmond","name":"Edmond","state":"OK","lat":35.6528,"lon":-97.4781},{"id":"ny-chinatown","name":"Chinatown","state":"NY","lat":40.7165,"lon":-73.9963},{"id":"id-nampa","name":"Nampa","state":"ID","lat":43.5407,"lon":-116.5635},{"id":"nj-trenton","name":"Trenton","state":"NJ","lat":40.2171,"lon":-74.7429},{"id":"ut-sandy-hills","name":"Sandy Hills","state":"UT","lat":40.5811,"lon":-111.8508},{"id":"ma-newton","name":"Newton","state":"MA","lat":42.337,"lon":-71.2092},{"id":"nj-toms-river","name":"Toms River","state":"NJ","lat":39.9537,"lon":-74.1979},{"id":"in-carmel","name":"Carmel","state":"IN","lat":39.9784,"lon":-86.118},{"id":"ct-norwalk","name":"Norwalk","state":"CT","lat":41.1176,"lon":-73.4079},{"id":"il-waukegan","name":"Waukegan","state":"IL","lat":42.3636,"lon":-87.8448},{"id":"fl-deltona","name":"Deltona","state":"FL","lat":28.9005,"lon":-81.2637},{"id":"ca-hawthorne","name":"Hawthorne","state":"CA","lat":33.9164,"lon":-118.3526},{"id":"ar-fort-smith","name":"Fort Smith","state":"AR","lat":35.3859,"lon":-94.3986},{"id":"va-suffolk","name":"Suffolk","state":"VA","lat":36.7284,"lon":-76.585},{"id":"tx-sugar-land","name":"Sugar Land","state":"TX","lat":29.6197,"lon":-95.635},{"id":"ca-livermore","name":"Livermore","state":"CA","lat":37.6819,"lon":-121.768},{"id":"nh-nashua","name":"Nashua","state":"NH","lat":42.7654,"lon":-71.4676},{"id":"pa-reading","name":"Reading","state":"PA","lat":40.3357,"lon":-75.9269},{"id":"nc-concord","name":"Concord","state":"NC","lat":35.4089,"lon":-80.5816},{"id":"ca-indio","name":"Indio","state":"CA","lat":33.7207,"lon":-116.2168},{"id":"nm-rio-rancho","name":"Rio Rancho","state":"NM","lat":35.2334,"lon":-106.6645},{"id":"nm-enchanted-hills","name":"Enchanted Hills","state":"NM","lat":35.3368,"lon":-106.593},{"id":"nm-santa-fe","name":"Santa Fe","state":"NM","lat":35.687,"lon":-105.9378},{"id":"ut-sandy","name":"Sandy","state":"UT","lat":40.5916,"lon":-111.8841},{"id":"ca-whittier","name":"Whittier","state":"CA","lat":33.9792,"lon":-118.0328},{"id":"ny-canarsie","name":"Canarsie","state":"NY","lat":40.6437,"lon":-73.9007},{"id":"wa-kirkland","name":"Kirkland","state":"WA","lat":47.6815,"lon":-122.2087},{"id":"ca-menifee","name":"Menifee","state":"CA","lat":33.7283,"lon":-117.1464},{"id":"ca-newport-beach","name":"Newport Beach","state":"CA","lat":33.6189,"lon":-117.929},{"id":"ca-tracy","name":"Tracy","state":"CA","lat":37.7399,"lon":-121.4262},{"id":"ca-citrus-heights","name":"Citrus Heights","state":"CA","lat":38.7071,"lon":-121.2811},{"id":"or-bend","name":"Bend","state":"OR","lat":44.0582,"lon":-121.3153},{"id":"mi-canton","name":"Canton","state":"MI","lat":42.3087,"lon":-83.4822},{"id":"fl-lehigh-acres","name":"Lehigh Acres","state":"FL","lat":26.6254,"lon":-81.6248},{"id":"ny-greenburgh","name":"Greenburgh","state":"NY","lat":41.0329,"lon":-73.8429},{"id":"mn-bloomington","name":"Bloomington","state":"MN","lat":44.8408,"lon":-93.2983},{"id":"il-west-town","name":"West Town","state":"IL","lat":41.8938,"lon":-87.6749},{"id":"md-germantown","name":"Germantown","state":"MD","lat":39.1732,"lon":-77.2716},{"id":"nj-clifton","name":"Clifton","state":"NJ","lat":40.8584,"lon":-74.1638},{"id":"mn-duluth","name":"Duluth","state":"MN","lat":46.7833,"lon":-92.1066},{"id":"il-champaign","name":"Champaign","state":"IL","lat":40.1164,"lon":-88.2434},{"id":"il-near-north-side","name":"Near North Side","state":"IL","lat":41.9,"lon":-87.6345},{"id":"ca-chino","name":"Chino","state":"CA","lat":34.0122,"lon":-117.6889},{"id":"ca-alhambra","name":"Alhambra","state":"CA","lat":34.0953,"lon":-118.127},{"id":"ut-ogden","name":"Ogden","state":"UT","lat":41.223,"lon":-111.9738},{"id":"ca-redwood-city","name":"Redwood City","state":"CA","lat":37.4852,"lon":-122.2364},{"id":"wa-bellingham","name":"Bellingham","state":"WA","lat":48.7595,"lon":-122.4882},{"id":"mo-ofallon","name":"O'Fallon","state":"MO","lat":38.8106,"lon":-90.6998},{"id":"al-hoover","name":"Hoover","state":"AL","lat":33.4054,"lon":-86.8114},{"id":"fl-melbourne","name":"Melbourne","state":"FL","lat":28.0836,"lon":-80.6081},{"id":"ct-danbury","name":"Danbury","state":"CT","lat":41.3948,"lon":-73.454},{"id":"ct-east-norwalk","name":"East Norwalk","state":"CT","lat":41.1056,"lon":-73.3984},{"id":"tx-edinburg","name":"Edinburg","state":"TX","lat":26.3017,"lon":-98.1633},{"id":"fl-sunrise","name":"Sunrise","state":"FL","lat":26.134,"lon":-80.1131},{"id":"in-bloomington","name":"Bloomington","state":"IN","lat":39.1653,"lon":-86.5264},{"id":"il-cicero","name":"Cicero","state":"IL","lat":41.8456,"lon":-87.7539},{"id":"ca-hemet","name":"Hemet","state":"CA","lat":33.7476,"lon":-116.9731},{"id":"ca-san-pedro","name":"San Pedro","state":"CA","lat":33.7358,"lon":-118.2923},{"id":"az-ahwatukee-foothills","name":"Ahwatukee Foothills","state":"AZ","lat":33.3417,"lon":-111.984},{"id":"ga-johns-creek","name":"Johns Creek","state":"GA","lat":34.0289,"lon":-84.1986},{"id":"tx-mission","name":"Mission","state":"TX","lat":26.2159,"lon":-98.3253},{"id":"mi-troy","name":"Troy","state":"MI","lat":42.6056,"lon":-83.1499},{"id":"ca-buena-park","name":"Buena Park","state":"CA","lat":33.8675,"lon":-117.9981},{"id":"ca-mid-city","name":"Mid-City","state":"CA","lat":34.0413,"lon":-118.3606},{"id":"fl-palm-coast","name":"Palm Coast","state":"FL","lat":29.585,"lon":-81.2078},{"id":"ar-fayetteville","name":"Fayetteville","state":"AR","lat":36.0626,"lon":-94.1574},{"id":"ia-sioux-city","name":"Sioux City","state":"IA","lat":42.5,"lon":-96.4003},{"id":"ca-lake-forest","name":"Lake Forest","state":"CA","lat":33.647,"lon":-117.6892},{"id":"ca-merced","name":"Merced","state":"CA","lat":37.3022,"lon":-120.483},{"id":"tx-longview","name":"Longview","state":"TX","lat":32.5007,"lon":-94.7405},{"id":"tx-bryan","name":"Bryan","state":"TX","lat":30.6744,"lon":-96.37},{"id":"mi-westland","name":"Westland","state":"MI","lat":42.3242,"lon":-83.4002},{"id":"ri-warwick","name":"Warwick","state":"RI","lat":41.7001,"lon":-71.4162},{"id":"ca-lakewood","name":"Lakewood","state":"CA","lat":33.8536,"lon":-118.134},{"id":"mi-farmington-hills","name":"Farmington Hills","state":"MI","lat":42.4853,"lon":-83.3772},{"id":"az-san-tan-valley","name":"San Tan Valley","state":"AZ","lat":33.1911,"lon":-111.528},{"id":"sc-mount-pleasant","name":"Mount Pleasant","state":"SC","lat":32.7941,"lon":-79.8626},{"id":"ri-cranston","name":"Cranston","state":"RI","lat":41.7798,"lon":-71.4373},{"id":"fl-largo","name":"Largo","state":"FL","lat":27.9098,"lon":-82.7884},{"id":"fl-homestead","name":"Homestead","state":"FL","lat":25.4687,"lon":-80.4776},{"id":"va-south-suffolk","name":"South Suffolk","state":"VA","lat":36.7171,"lon":-76.5902},{"id":"az-avondale","name":"Avondale","state":"AZ","lat":33.4356,"lon":-112.3496},{"id":"ca-tustin","name":"Tustin","state":"CA","lat":33.7458,"lon":-117.8262},{"id":"ca-mountain-view","name":"Mountain View","state":"CA","lat":37.386,"lon":-122.0838},{"id":"ca-napa","name":"Napa","state":"CA","lat":38.2971,"lon":-122.2855},{"id":"ma-somerville","name":"Somerville","state":"MA","lat":42.3876,"lon":-71.0995},{"id":"fl-kendall","name":"Kendall","state":"FL","lat":25.6793,"lon":-80.3173},{"id":"ma-lawrence","name":"Lawrence","state":"MA","lat":42.707,"lon":-71.1631},{"id":"oh-parma","name":"Parma","state":"OH","lat":41.4048,"lon":-81.7229},{"id":"ny-new-rochelle","name":"New Rochelle","state":"NY","lat":40.9115,"lon":-73.7823},{"id":"va-lynchburg","name":"Lynchburg","state":"VA","lat":37.4138,"lon":-79.1423},{"id":"or-medford","name":"Medford","state":"OR","lat":42.3265,"lon":-122.8756},{"id":"fl-deerfield-beach","name":"Deerfield Beach","state":"FL","lat":26.3184,"lon":-80.0998},{"id":"ca-sylmar","name":"Sylmar","state":"CA","lat":34.3078,"lon":-118.4493},{"id":"ca-pleasanton","name":"Pleasanton","state":"CA","lat":37.6624,"lon":-121.8747},{"id":"il-belmont-cragin","name":"Belmont Cragin","state":"IL","lat":41.9317,"lon":-87.7687},{"id":"mn-brooklyn-park","name":"Brooklyn Park","state":"MN","lat":45.0941,"lon":-93.3563},{"id":"az-goodyear","name":"Goodyear","state":"AZ","lat":33.4353,"lon":-112.3582},{"id":"wa-kennewick","name":"Kennewick","state":"WA","lat":46.2112,"lon":-119.1372},{"id":"ca-alameda","name":"Alameda","state":"CA","lat":37.771,"lon":-122.2609},{"id":"fl-town-n-country","name":"Town 'n' Country","state":"FL","lat":28.0106,"lon":-82.5773},{"id":"ca-bellflower","name":"Bellflower","state":"CA","lat":33.8817,"lon":-118.117},{"id":"ca-chino-hills","name":"Chino Hills","state":"CA","lat":33.9938,"lon":-117.7589},{"id":"il-bloomington","name":"Bloomington","state":"IL","lat":40.4842,"lon":-88.9937},{"id":"fl-alafaya","name":"Alafaya","state":"FL","lat":28.5641,"lon":-81.2114},{"id":"ar-springdale","name":"Springdale","state":"AR","lat":36.1867,"lon":-94.1288},{"id":"wi-racine","name":"Racine","state":"WI","lat":42.7261,"lon":-87.7828},{"id":"in-hammond","name":"Hammond","state":"IN","lat":41.5834,"lon":-87.5},{"id":"ca-milpitas","name":"Milpitas","state":"CA","lat":37.4283,"lon":-121.9066},{"id":"in-gary","name":"Gary","state":"IN","lat":41.5934,"lon":-87.3464},{"id":"pa-scranton","name":"Scranton","state":"PA","lat":41.4092,"lon":-75.6649},{"id":"ca-baldwin-park","name":"Baldwin Park","state":"CA","lat":34.0853,"lon":-117.9609},{"id":"wa-auburn","name":"Auburn","state":"WA","lat":47.3073,"lon":-122.2284},{"id":"in-fishers","name":"Fishers","state":"IN","lat":39.9556,"lon":-86.0139},{"id":"mo-saint-joseph","name":"Saint Joseph","state":"MO","lat":39.7686,"lon":-94.8466},{"id":"tx-pharr","name":"Pharr","state":"TX","lat":26.1948,"lon":-98.1836},{"id":"ca-upland","name":"Upland","state":"CA","lat":34.0975,"lon":-117.6484},{"id":"ca-folsom","name":"Folsom","state":"CA","lat":38.678,"lon":-121.1761},{"id":"tx-baytown","name":"Baytown","state":"TX","lat":29.7355,"lon":-94.9774},{"id":"ca-san-ramon","name":"San Ramon","state":"CA","lat":37.7799,"lon":-121.978},{"id":"nj-camden","name":"Camden","state":"NJ","lat":39.926,"lon":-75.1196},{"id":"la-lake-charles","name":"Lake Charles","state":"LA","lat":30.2131,"lon":-93.2044},{"id":"mi-kalamazoo","name":"Kalamazoo","state":"MI","lat":42.2917,"lon":-85.5872},{"id":"nj-brick","name":"Brick","state":"NJ","lat":40.0593,"lon":-74.1371},{"id":"il-arlington-heights","name":"Arlington Heights","state":"IL","lat":42.0884,"lon":-87.9806},{"id":"mn-plymouth","name":"Plymouth","state":"MN","lat":45.0105,"lon":-93.4555},{"id":"ny-south-ozone-park","name":"South Ozone Park","state":"NY","lat":40.6701,"lon":-73.819},{"id":"fl-doral","name":"Doral","state":"FL","lat":25.8195,"lon":-80.3553},{"id":"mi-waterford","name":"Waterford","state":"MI","lat":42.693,"lon":-83.4118},{"id":"il-evanston","name":"Evanston","state":"IL","lat":42.0411,"lon":-87.6901},{"id":"ca-manteca","name":"Manteca","state":"CA","lat":37.7974,"lon":-121.216},{"id":"mi-wyoming","name":"Wyoming","state":"MI","lat":42.9134,"lon":-85.7053},{"id":"co-loveland","name":"Loveland","state":"CO","lat":40.3978,"lon":-105.075},{"id":"ny-cheektowaga","name":"Cheektowaga","state":"NY","lat":42.9034,"lon":-78.7548},{"id":"ny-kings-bridge","name":"Kings Bridge","state":"NY","lat":40.8787,"lon":-73.9051},{"id":"nd-bismarck","name":"Bismarck","state":"ND","lat":46.8083,"lon":-100.7837},{"id":"ca-perris","name":"Perris","state":"CA","lat":33.7825,"lon":-117.2287},{"id":"pa-bethlehem","name":"Bethlehem","state":"PA","lat":40.6259,"lon":-75.3705},{"id":"ga-albany","name":"Albany","state":"GA","lat":31.5785,"lon":-84.1557},{"id":"il-schaumburg","name":"Schaumburg","state":"IL","lat":42.0334,"lon":-88.0834},{"id":"nc-gastonia","name":"Gastonia","state":"NC","lat":35.2621,"lon":-81.1873},{"id":"ny-brownsville","name":"Brownsville","state":"NY","lat":40.6609,"lon":-73.9201},{"id":"ca-union-city","name":"Union City","state":"CA","lat":37.5958,"lon":-122.0191},{"id":"il-bolingbrook","name":"Bolingbrook","state":"IL","lat":41.6986,"lon":-88.0684},{"id":"ia-iowa-city","name":"Iowa City","state":"IA","lat":41.6611,"lon":-91.5302},{"id":"ut-layton","name":"Layton","state":"UT","lat":41.0602,"lon":-111.9711},{"id":"tx-missouri-city","name":"Missouri City","state":"TX","lat":29.6186,"lon":-95.5377},{"id":"wi-appleton","name":"Appleton","state":"WI","lat":44.2619,"lon":-88.4154},{"id":"mi-shelby","name":"Shelby","state":"MI","lat":42.6709,"lon":-83.033},{"id":"fl-fort-myers","name":"Fort Myers","state":"FL","lat":26.6217,"lon":-81.8406},{"id":"fl-boynton-beach","name":"Boynton Beach","state":"FL","lat":26.5253,"lon":-80.0664},{"id":"ar-jonesboro","name":"Jonesboro","state":"AR","lat":35.8423,"lon":-90.7043},{"id":"il-south-lawndale","name":"South Lawndale","state":"IL","lat":41.8436,"lon":-87.7125},{"id":"il-logan-square","name":"Logan Square","state":"IL","lat":41.9234,"lon":-87.6992},{"id":"sd-rapid-city","name":"Rapid City","state":"SD","lat":44.0805,"lon":-103.231},{"id":"ga-warner-robins","name":"Warner Robins","state":"GA","lat":32.6157,"lon":-83.6266},{"id":"mi-rochester-hills","name":"Rochester Hills","state":"MI","lat":42.6584,"lon":-83.1499},{"id":"il-decatur","name":"Decatur","state":"IL","lat":39.8403,"lon":-88.9548},{"id":"mi-southfield","name":"Southfield","state":"MI","lat":42.4734,"lon":-83.2219},{"id":"ut-saint-george","name":"Saint George","state":"UT","lat":37.1041,"lon":-113.5841},{"id":"ct-new-britain","name":"New Britain","state":"CT","lat":41.6612,"lon":-72.7795},{"id":"fl-daytona-beach","name":"Daytona Beach","state":"FL","lat":29.2108,"lon":-81.0228},{"id":"tn-franklin","name":"Franklin","state":"TN","lat":35.9251,"lon":-86.8689},{"id":"ca-turlock","name":"Turlock","state":"CA","lat":37.4947,"lon":-120.8466},{"id":"tx-temple","name":"Temple","state":"TX","lat":31.0982,"lon":-97.3428},{"id":"il-west-ridge","name":"West Ridge","state":"IL","lat":41.9997,"lon":-87.6928},{"id":"ca-apple-valley","name":"Apple Valley","state":"CA","lat":34.5008,"lon":-117.1859},{"id":"ca-lynwood","name":"Lynwood","state":"CA","lat":33.9303,"lon":-118.2115},{"id":"wi-waukesha","name":"Waukesha","state":"WI","lat":43.0117,"lon":-88.2315},{"id":"oh-canton","name":"Canton","state":"OH","lat":40.7989,"lon":-81.3785},{"id":"ms-gulfport","name":"Gulfport","state":"MS","lat":30.3674,"lon":-89.0928},{"id":"ri-pawtucket","name":"Pawtucket","state":"RI","lat":41.8787,"lon":-71.3826},{"id":"fl-lauderhill","name":"Lauderhill","state":"FL","lat":26.1404,"lon":-80.2134},{"id":"sc-rock-hill","name":"Rock Hill","state":"SC","lat":34.9249,"lon":-81.0251},{"id":"md-silver-spring","name":"Silver Spring","state":"MD","lat":38.9907,"lon":-77.0261},{"id":"ms-west-gulfport","name":"West Gulfport","state":"MS","lat":30.4041,"lon":-89.0942},{"id":"tx-flower-mound","name":"Flower Mound","state":"TX","lat":33.0146,"lon":-97.097},{"id":"va-centreville","name":"Centreville","state":"VA","lat":38.8404,"lon":-77.4289},{"id":"in-lafayette","name":"Lafayette","state":"IN","lat":40.4167,"lon":-86.8753},{"id":"nj-passaic","name":"Passaic","state":"NJ","lat":40.8568,"lon":-74.1285},{"id":"fl-riverview","name":"Riverview","state":"FL","lat":27.8661,"lon":-82.3265},{"id":"ca-redlands","name":"Redlands","state":"CA","lat":34.0556,"lon":-117.1825},{"id":"mt-missoula","name":"Missoula","state":"MT","lat":46.8721,"lon":-113.994},{"id":"ca-rancho-cordova","name":"Rancho Cordova","state":"CA","lat":38.5891,"lon":-121.3027},{"id":"de-wilmington","name":"Wilmington","state":"DE","lat":39.746,"lon":-75.5466},{"id":"tx-new-braunfels","name":"New Braunfels","state":"TX","lat":29.703,"lon":-98.1244},{"id":"nj-cherry-hill","name":"Cherry Hill","state":"NJ","lat":39.9348,"lon":-75.0307},{"id":"az-flagstaff","name":"Flagstaff","state":"AZ","lat":35.1981,"lon":-111.6513},{"id":"in-muncie","name":"Muncie","state":"IN","lat":40.1934,"lon":-85.3864},{"id":"ca-mira-mesa","name":"Mira Mesa","state":"CA","lat":32.9156,"lon":-117.1439},{"id":"ca-woodland-hills","name":"Woodland Hills","state":"CA","lat":34.1683,"lon":-118.6059},{"id":"fl-weston","name":"Weston","state":"FL","lat":26.1004,"lon":-80.3998},{"id":"md-frederick","name":"Frederick","state":"MD","lat":39.4143,"lon":-77.4105},{"id":"wa-pasco","name":"Pasco","state":"WA","lat":46.2396,"lon":-119.1006},{"id":"ca-pittsburg","name":"Pittsburg","state":"CA","lat":38.028,"lon":-121.8847},{"id":"ny-ridgewood","name":"Ridgewood","state":"NY","lat":40.7001,"lon":-73.9057},{"id":"il-palatine","name":"Palatine","state":"IL","lat":42.1103,"lon":-88.0342},{"id":"tx-north-richland-hills","name":"North Richland Hills","state":"TX","lat":32.8343,"lon":-97.2289},{"id":"nj-union-city","name":"Union City","state":"NJ","lat":40.7796,"lon":-74.0238},{"id":"fl-kissimmee","name":"Kissimmee","state":"FL","lat":28.3047,"lon":-81.4167},{"id":"ca-walnut-creek","name":"Walnut Creek","state":"CA","lat":37.9063,"lon":-122.065},{"id":"tn-cordova","name":"Cordova","state":"TN","lat":35.1557,"lon":-89.7762},{"id":"ny-mount-vernon","name":"Mount Vernon","state":"NY","lat":40.9126,"lon":-73.8371},{"id":"tx-conroe","name":"Conroe","state":"TX","lat":30.3119,"lon":-95.4561},{"id":"al-dothan","name":"Dothan","state":"AL","lat":31.2232,"lon":-85.3905},{"id":"ca-northridge","name":"Northridge","state":"CA","lat":34.2283,"lon":-118.5367},{"id":"ia-waterloo","name":"Waterloo","state":"IA","lat":42.4928,"lon":-92.343},{"id":"mn-maple-grove","name":"Maple Grove","state":"MN","lat":45.0725,"lon":-93.4558},{"id":"ma-framingham","name":"Framingham","state":"MA","lat":42.2793,"lon":-71.4162},{"id":"ca-redondo-beach","name":"Redondo Beach","state":"CA","lat":33.8492,"lon":-118.3884},{"id":"la-bossier-city","name":"Bossier City","state":"LA","lat":32.516,"lon":-93.7321},{"id":"ca-yorba-linda","name":"Yorba Linda","state":"CA","lat":33.8886,"lon":-117.8131},{"id":"mn-woodbury","name":"Woodbury","state":"MN","lat":44.9239,"lon":-92.9594},{"id":"wi-eau-claire","name":"Eau Claire","state":"WI","lat":44.8113,"lon":-91.4985},{"id":"md-waldorf","name":"Waldorf","state":"MD","lat":38.6246,"lon":-76.9391},{"id":"ny-forest-hills","name":"Forest Hills","state":"NY","lat":40.7162,"lon":-73.8501},{"id":"ca-davis","name":"Davis","state":"CA","lat":38.5449,"lon":-121.7405},{"id":"md-glen-burnie","name":"Glen Burnie","state":"MD","lat":39.1626,"lon":-76.6247},{"id":"ca-camarillo","name":"Camarillo","state":"CA","lat":34.2164,"lon":-119.0376},{"id":"tx-victoria","name":"Victoria","state":"TX","lat":28.8053,"lon":-97.0036},{"id":"md-gaithersburg","name":"Gaithersburg","state":"MD","lat":39.1434,"lon":-77.2014},{"id":"nc-jacksonville","name":"Jacksonville","state":"NC","lat":34.754,"lon":-77.4302},{"id":"ca-south-san-francisco","name":"South San Francisco","state":"CA","lat":37.6547,"lon":-122.4077},{"id":"la-kenner","name":"Kenner","state":"LA","lat":29.9941,"lon":-90.2417},{"id":"ny-jackson-heights","name":"Jackson Heights","state":"NY","lat":40.7557,"lon":-73.8854},{"id":"md-rockville","name":"Rockville","state":"MD","lat":39.084,"lon":-77.1528},{"id":"tn-jackson","name":"Jackson","state":"TN","lat":35.6145,"lon":-88.814},{"id":"il-lincoln-park","name":"Lincoln Park","state":"IL","lat":41.9217,"lon":-87.6478},{"id":"ca-yuba-city","name":"Yuba City","state":"CA","lat":39.1405,"lon":-121.6169},{"id":"me-portland","name":"Portland","state":"ME","lat":43.6574,"lon":-70.2589},{"id":"ca-palo-alto","name":"Palo Alto","state":"CA","lat":37.4419,"lon":-122.143},{"id":"az-casas-adobes","name":"Casas Adobes","state":"AZ","lat":32.3234,"lon":-110.9951},{"id":"wa-marysville","name":"Marysville","state":"WA","lat":48.0518,"lon":-122.1771},{"id":"ut-south-jordan","name":"South Jordan","state":"UT","lat":40.5622,"lon":-111.9297},{"id":"wi-oshkosh","name":"Oshkosh","state":"WI","lat":44.0247,"lon":-88.5426},{"id":"ar-north-little-rock","name":"North Little Rock","state":"AR","lat":34.7695,"lon":-92.2671},{"id":"ny-bayside","name":"Bayside","state":"NY","lat":40.7684,"lon":-73.7771},{"id":"nj-bayonne","name":"Bayonne","state":"NJ","lat":40.6687,"lon":-74.1143},{"id":"mn-eagan","name":"Eagan","state":"MN","lat":44.8041,"lon":-93.1669},{"id":"fl-delray-beach","name":"Delray Beach","state":"FL","lat":26.4615,"lon":-80.0728},{"id":"tn-johnson-city","name":"Johnson City","state":"TN","lat":36.3134,"lon":-82.3535},{"id":"va-dale-city","name":"Dale City","state":"VA","lat":38.6371,"lon":-77.3111},{"id":"tx-cedar-park","name":"Cedar Park","state":"TX","lat":30.5052,"lon":-97.8203},{"id":"ny-parkchester","name":"Parkchester","state":"NY","lat":40.839,"lon":-73.8604},{"id":"tx-atascocita","name":"Atascocita","state":"TX","lat":29.9988,"lon":-95.1766},{"id":"mn-saint-cloud","name":"Saint Cloud","state":"MN","lat":45.5608,"lon":-94.1625},{"id":"md-ellicott-city","name":"Ellicott City","state":"MD","lat":39.2673,"lon":-76.7983},{"id":"ca-laguna-niguel","name":"Laguna Niguel","state":"CA","lat":33.5225,"lon":-117.7075},{"id":"mo-saint-charles","name":"Saint Charles","state":"MO","lat":38.7839,"lon":-90.4812},{"id":"tx-harlingen","name":"Harlingen","state":"TX","lat":26.1906,"lon":-97.6961},{"id":"ca-san-clemente","name":"San Clemente","state":"CA","lat":33.427,"lon":-117.612},{"id":"va-west-lynchburg","name":"West Lynchburg","state":"VA","lat":37.4032,"lon":-79.1781},{"id":"nj-middletown","name":"Middletown","state":"NJ","lat":40.3943,"lon":-74.1171},{"id":"ma-framingham-center","name":"Framingham Center","state":"MA","lat":42.2973,"lon":-71.437},{"id":"ny-schenectady","name":"Schenectady","state":"NY","lat":42.8142,"lon":-73.9396},{"id":"wy-cheyenne","name":"Cheyenne","state":"WY","lat":41.14,"lon":-104.8203},{"id":"co-broomfield","name":"Broomfield","state":"CO","lat":39.9205,"lon":-105.0867},{"id":"ia-ames","name":"Ames","state":"IA","lat":42.0347,"lon":-93.6199},{"id":"ny-park-slope","name":"Park Slope","state":"NY","lat":40.6701,"lon":-73.986},{"id":"ks-shawnee","name":"Shawnee","state":"KS","lat":39.0417,"lon":-94.7202},{"id":"ca-reseda","name":"Reseda","state":"CA","lat":34.2011,"lon":-118.5365},{"id":"ar-conway","name":"Conway","state":"AR","lat":35.0887,"lon":-92.4421},{"id":"nj-east-orange","name":"East Orange","state":"NJ","lat":40.7673,"lon":-74.2049},{"id":"il-portage-park","name":"Portage Park","state":"IL","lat":41.9578,"lon":-87.7651},{"id":"il-skokie","name":"Skokie","state":"IL","lat":42.0334,"lon":-87.7334},{"id":"mi-west-bloomfield-township","name":"West Bloomfield Township","state":"MI","lat":42.5689,"lon":-83.3836},{"id":"fl-tamarac","name":"Tamarac","state":"FL","lat":26.2129,"lon":-80.2498},{"id":"oh-youngstown","name":"Youngstown","state":"OH","lat":41.0998,"lon":-80.6495},{"id":"ca-lodi","name":"Lodi","state":"CA","lat":38.1302,"lon":-121.2725},{"id":"ca-north-hollywood","name":"North Hollywood","state":"CA","lat":34.1722,"lon":-118.379},{"id":"sc-greenville","name":"Greenville","state":"SC","lat":34.8526,"lon":-82.394},{"id":"tx-mansfield","name":"Mansfield","state":"TX","lat":32.5632,"lon":-97.1417},{"id":"ca-santa-cruz","name":"Santa Cruz","state":"CA","lat":36.9741,"lon":-122.0308},{"id":"ca-pico-rivera","name":"Pico Rivera","state":"CA","lat":33.9831,"lon":-118.0967},{"id":"ca-madera","name":"Madera","state":"CA","lat":36.9613,"lon":-120.0607},{"id":"wi-janesville","name":"Janesville","state":"WI","lat":42.6828,"lon":-89.0187},{"id":"ia-west-des-moines","name":"West Des Moines","state":"IA","lat":41.5772,"lon":-93.7113},{"id":"ca-montebello","name":"Montebello","state":"CA","lat":34.0095,"lon":-118.1054},{"id":"tx-georgetown","name":"Georgetown","state":"TX","lat":30.6327,"lon":-97.6772},{"id":"ga-alpharetta","name":"Alpharetta","state":"GA","lat":34.0754,"lon":-84.2941},{"id":"oh-lorain","name":"Lorain","state":"OH","lat":41.4528,"lon":-82.1824},{"id":"ky-bowling-green","name":"Bowling Green","state":"KY","lat":36.9903,"lon":-86.4436},{"id":"ny-flatlands","name":"Flatlands","state":"NY","lat":40.6212,"lon":-73.9349},{"id":"md-dundalk","name":"Dundalk","state":"MD","lat":39.2507,"lon":-76.5205},{"id":"mn-eden-prairie","name":"Eden Prairie","state":"MN","lat":44.8547,"lon":-93.4708},{"id":"nj-north-bergen","name":"North Bergen","state":"NJ","lat":40.8043,"lon":-74.0121},{"id":"ca-florence-graham","name":"Florence-Graham","state":"CA","lat":33.9677,"lon":-118.2444},{"id":"ma-waltham","name":"Waltham","state":"MA","lat":42.3765,"lon":-71.2356},{"id":"ct-west-hartford","name":"West Hartford","state":"CT","lat":41.762,"lon":-72.742},{"id":"ar-rogers","name":"Rogers","state":"AR","lat":36.332,"lon":-94.1185},{"id":"fl-carol-city","name":"Carol City","state":"FL","lat":25.9407,"lon":-80.2456},{"id":"ca-encinitas","name":"Encinitas","state":"CA","lat":33.037,"lon":-117.292},{"id":"ny-east-village","name":"East Village","state":"NY","lat":40.7293,"lon":-73.9874},{"id":"ma-haverhill","name":"Haverhill","state":"MA","lat":42.7762,"lon":-71.0773},{"id":"fl-jupiter","name":"Jupiter","state":"FL","lat":26.9342,"lon":-80.0942},{"id":"ia-council-bluffs","name":"Council Bluffs","state":"IA","lat":41.2619,"lon":-95.8608},{"id":"fl-wellington","name":"Wellington","state":"FL","lat":26.6587,"lon":-80.2414},{"id":"mn-west-coon-rapids","name":"West Coon Rapids","state":"MN","lat":45.1597,"lon":-93.3497},{"id":"fl-north-miami","name":"North Miami","state":"FL","lat":25.8901,"lon":-80.1867},{"id":"oh-hamilton","name":"Hamilton","state":"OH","lat":39.3995,"lon":-84.5613},{"id":"fl-north-port","name":"North Port","state":"FL","lat":27.0442,"lon":-82.2359},{"id":"ca-tulare","name":"Tulare","state":"CA","lat":36.2077,"lon":-119.3473},{"id":"mn-coon-rapids","name":"Coon Rapids","state":"MN","lat":45.12,"lon":-93.2877},{"id":"ut-millcreek","name":"Millcreek","state":"UT","lat":40.6869,"lon":-111.8755},{"id":"ca-la-habra","name":"La Habra","state":"CA","lat":33.932,"lon":-117.9462},{"id":"mn-blaine","name":"Blaine","state":"MN","lat":45.1608,"lon":-93.2349},{"id":"al-auburn","name":"Auburn","state":"AL","lat":32.6099,"lon":-85.4808},{"id":"ca-lake-elsinore","name":"Lake Elsinore","state":"CA","lat":33.6681,"lon":-117.3273},{"id":"ca-carmichael","name":"Carmichael","state":"CA","lat":38.6171,"lon":-121.3283},{"id":"mi-taylor","name":"Taylor","state":"MI","lat":42.2409,"lon":-83.2696},{"id":"mn-burnsville","name":"Burnsville","state":"MN","lat":44.7677,"lon":-93.2777},{"id":"ca-monterey-park","name":"Monterey Park","state":"CA","lat":34.0625,"lon":-118.1228},{"id":"ca-castro-valley","name":"Castro Valley","state":"CA","lat":37.6941,"lon":-122.0863},{"id":"nj-irvington","name":"Irvington","state":"NJ","lat":40.7323,"lon":-74.2349},{"id":"ca-rocklin","name":"Rocklin","state":"CA","lat":38.7907,"lon":-121.2358},{"id":"ny-utica","name":"Utica","state":"NY","lat":43.1009,"lon":-75.2327},{"id":"ma-malden","name":"Malden","state":"MA","lat":42.4251,"lon":-71.0662},{"id":"ca-national-city","name":"National City","state":"CA","lat":32.6781,"lon":-117.0992},{"id":"ny-financial-district","name":"Financial District","state":"NY","lat":40.7079,"lon":-74.0086},{"id":"or-springfield","name":"Springfield","state":"OR","lat":44.0462,"lon":-123.022},{"id":"md-bethesda","name":"Bethesda","state":"MD","lat":38.9807,"lon":-77.1003},{"id":"in-terre-haute","name":"Terre Haute","state":"IN","lat":39.4667,"lon":-87.4139},{"id":"nj-vineland","name":"Vineland","state":"NJ","lat":39.4862,"lon":-75.0257},{"id":"fl-west-hollywood","name":"West Hollywood","state":"FL","lat":26.0206,"lon":-80.1839},{"id":"tx-san-marcos","name":"San Marcos","state":"TX","lat":29.8833,"lon":-97.9414},{"id":"ny-brentwood","name":"Brentwood","state":"NY","lat":40.7812,"lon":-73.2462},{"id":"mn-lakeville","name":"Lakeville","state":"MN","lat":44.6497,"lon":-93.2427},{"id":"wi-west-allis","name":"West Allis","state":"WI","lat":43.0167,"lon":-88.007},{"id":"wa-redmond","name":"Redmond","state":"WA","lat":47.674,"lon":-122.1215},{"id":"ca-canoga-park","name":"Canoga Park","state":"CA","lat":34.2011,"lon":-118.5981},{"id":"ca-cupertino","name":"Cupertino","state":"CA","lat":37.323,"lon":-122.0322},{"id":"ut-taylorsville","name":"Taylorsville","state":"UT","lat":40.6677,"lon":-111.9388},{"id":"ct-bristol","name":"Bristol","state":"CT","lat":41.6718,"lon":-72.9493},{"id":"ok-moore","name":"Moore","state":"OK","lat":35.3395,"lon":-97.4867},{"id":"ca-gardena","name":"Gardena","state":"CA","lat":33.8884,"lon":-118.309},{"id":"ca-petaluma","name":"Petaluma","state":"CA","lat":38.2324,"lon":-122.6367},{"id":"pa-bensalem","name":"Bensalem","state":"PA","lat":40.1046,"lon":-74.9513},{"id":"co-grand-junction","name":"Grand Junction","state":"CO","lat":39.0639,"lon":-108.5507},{"id":"wy-casper","name":"Casper","state":"WY","lat":42.8666,"lon":-106.3131},{"id":"tx-rowlett","name":"Rowlett","state":"TX","lat":32.9029,"lon":-96.5639},{"id":"ca-la-mesa","name":"La Mesa","state":"CA","lat":32.7678,"lon":-117.0231},{"id":"fl-pine-hills","name":"Pine Hills","state":"FL","lat":28.5578,"lon":-81.4534},{"id":"ny-bensonhurst","name":"Bensonhurst","state":"NY","lat":40.6018,"lon":-73.994},{"id":"ny-coney-island","name":"Coney Island","state":"NY","lat":40.5779,"lon":-73.994},{"id":"ca-rancho-penasquitos","name":"Rancho Penasquitos","state":"CA","lat":32.9595,"lon":-117.1153},{"id":"ca-valley-glen","name":"Valley Glen","state":"CA","lat":34.1857,"lon":-118.4203},{"id":"ct-meriden","name":"Meriden","state":"CT","lat":41.5382,"lon":-72.807},{"id":"mi-pontiac","name":"Pontiac","state":"MI","lat":42.6389,"lon":-83.291},{"id":"fl-port-orange","name":"Port Orange","state":"FL","lat":29.1383,"lon":-80.9956},{"id":"ct-hamden","name":"Hamden","state":"CT","lat":41.3959,"lon":-72.8968},{"id":"wa-lakewood","name":"Lakewood","state":"WA","lat":47.1718,"lon":-122.5185},{"id":"fl-fountainebleau","name":"Fountainebleau","state":"FL","lat":25.7729,"lon":-80.3478},{"id":"mi-saint-clair-shores","name":"Saint Clair Shores","state":"MI","lat":42.497,"lon":-82.8888},{"id":"oh-springfield","name":"Springfield","state":"OH","lat":39.9242,"lon":-83.8088},{"id":"mt-great-falls","name":"Great Falls","state":"MT","lat":47.5002,"lon":-111.3008},{"id":"nc-chapel-hill","name":"Chapel Hill","state":"NC","lat":35.9132,"lon":-79.0558},{"id":"ca-canyon-country","name":"Canyon Country","state":"CA","lat":34.4233,"lon":-118.472},{"id":"ca-huntington-park","name":"Huntington Park","state":"CA","lat":33.9817,"lon":-118.2251},{"id":"pa-lancaster","name":"Lancaster","state":"PA","lat":40.0379,"lon":-76.3055},{"id":"fl-coconut-creek","name":"Coconut Creek","state":"FL","lat":26.2518,"lon":-80.1789},{"id":"tx-leander","name":"Leander","state":"TX","lat":30.5788,"lon":-97.8531},{"id":"id-idaho-falls","name":"Idaho Falls","state":"ID","lat":43.4666,"lon":-112.0341},{"id":"ca-san-rafael","name":"San Rafael","state":"CA","lat":37.9735,"lon":-122.5311},{"id":"in-noblesville","name":"Noblesville","state":"IN","lat":40.0456,"lon":-86.0086},{"id":"ga-marietta","name":"Marietta","state":"GA","lat":33.9526,"lon":-84.5499},{"id":"ct-fairfield","name":"Fairfield","state":"CT","lat":41.1412,"lon":-73.2637},{"id":"ky-owensboro","name":"Owensboro","state":"KY","lat":37.7742,"lon":-87.1133},{"id":"ca-eastvale","name":"Eastvale","state":"CA","lat":33.9636,"lon":-117.5642},{"id":"mi-royal-oak","name":"Royal Oak","state":"MI","lat":42.4895,"lon":-83.1446},{"id":"ca-brentwood","name":"Brentwood","state":"CA","lat":37.9319,"lon":-121.6958},{"id":"ia-dubuque","name":"Dubuque","state":"IA","lat":42.5006,"lon":-90.6646},{"id":"ma-brookline","name":"Brookline","state":"MA","lat":42.3318,"lon":-71.1212},{"id":"mi-novi","name":"Novi","state":"MI","lat":42.4806,"lon":-83.4755},{"id":"il-des-plaines","name":"Des Plaines","state":"IL","lat":42.0334,"lon":-87.8834},{"id":"nv-carson-city","name":"Carson City","state":"NV","lat":39.1638,"lon":-119.7674},{"id":"il-orland-park","name":"Orland Park","state":"IL","lat":41.6303,"lon":-87.8539},{"id":"tn-bartlett","name":"Bartlett","state":"TN","lat":35.2045,"lon":-89.874},{"id":"ca-woodland","name":"Woodland","state":"CA","lat":38.6785,"lon":-121.7733},{"id":"ut-lehi","name":"Lehi","state":"UT","lat":40.3916,"lon":-111.8508},{"id":"ny-white-plains","name":"White Plains","state":"NY","lat":41.034,"lon":-73.7629},{"id":"ca-arcadia","name":"Arcadia","state":"CA","lat":34.1397,"lon":-118.0353},{"id":"va-reston","name":"Reston","state":"VA","lat":38.9687,"lon":-77.3411},{"id":"fl-ocala","name":"Ocala","state":"FL","lat":29.1872,"lon":-82.1401},{"id":"ny-clay","name":"Clay","state":"NY","lat":43.1859,"lon":-76.1724},{"id":"az-central-city","name":"Central City","state":"AZ","lat":33.44,"lon":-112.058},{"id":"nj-south-vineland","name":"South Vineland","state":"NJ","lat":39.446,"lon":-75.0288},{"id":"fl-sanford","name":"Sanford","state":"FL","lat":28.8006,"lon":-81.2731},{"id":"md-bowie","name":"Bowie","state":"MD","lat":38.9428,"lon":-76.7303},{"id":"in-kokomo","name":"Kokomo","state":"IN","lat":40.4864,"lon":-86.1336},{"id":"nj-wayne","name":"Wayne","state":"NJ","lat":40.9254,"lon":-74.2765},{"id":"ca-santee","name":"Santee","state":"CA","lat":32.8384,"lon":-116.9739},{"id":"ca-dublin","name":"Dublin","state":"CA","lat":37.7022,"lon":-121.9358},{"id":"fl-palm-harbor","name":"Palm Harbor","state":"FL","lat":28.0781,"lon":-82.7637},{"id":"ma-medford","name":"Medford","state":"MA","lat":42.4184,"lon":-71.1062},{"id":"ok-midwest-city","name":"Midwest City","state":"OK","lat":35.4495,"lon":-97.3967},{"id":"pa-center-city","name":"Center City","state":"PA","lat":39.9512,"lon":-75.1592},{"id":"fl-margate","name":"Margate","state":"FL","lat":26.2445,"lon":-80.2064},{"id":"ca-south-whittier","name":"South Whittier","state":"CA","lat":33.9502,"lon":-118.0392},{"id":"il-tinley-park","name":"Tinley Park","state":"IL","lat":41.5734,"lon":-87.7845},{"id":"tx-pflugerville","name":"Pflugerville","state":"TX","lat":30.4394,"lon":-97.62},{"id":"nj-new-brunswick","name":"New Brunswick","state":"NJ","lat":40.4862,"lon":-74.4518},{"id":"nd-grand-forks","name":"Grand Forks","state":"ND","lat":47.9253,"lon":-97.0328},{"id":"ca-fountain-valley","name":"Fountain Valley","state":"CA","lat":33.7092,"lon":-117.9537},{"id":"ca-north-hills","name":"North Hills","state":"CA","lat":34.2364,"lon":-118.4847},{"id":"ca-diamond-bar","name":"Diamond Bar","state":"CA","lat":34.0286,"lon":-117.8103},{"id":"ma-taunton","name":"Taunton","state":"MA","lat":41.9001,"lon":-71.0898},{"id":"il-oak-lawn","name":"Oak Lawn","state":"IL","lat":41.7109,"lon":-87.7581},{"id":"nj-union","name":"Union","state":"NJ","lat":40.6976,"lon":-74.2632},{"id":"ia-ankeny","name":"Ankeny","state":"IA","lat":41.7297,"lon":-93.6058},{"id":"ma-chicopee","name":"Chicopee","state":"MA","lat":42.1487,"lon":-72.6079},{"id":"il-irving-park","name":"Irving Park","state":"IL","lat":41.9534,"lon":-87.7365},{"id":"il-berwyn","name":"Berwyn","state":"IL","lat":41.8506,"lon":-87.7937},{"id":"ks-manhattan","name":"Manhattan","state":"KS","lat":39.1836,"lon":-96.5717},{"id":"fl-kendale-lakes","name":"Kendale Lakes","state":"FL","lat":25.7082,"lon":-80.407},{"id":"ga-smyrna","name":"Smyrna","state":"GA","lat":33.884,"lon":-84.5144},{"id":"mi-dearborn-heights","name":"Dearborn Heights","state":"MI","lat":42.337,"lon":-83.2733},{"id":"ca-porterville","name":"Porterville","state":"CA","lat":36.0652,"lon":-119.0168},{"id":"nj-piscataway","name":"Piscataway","state":"NJ","lat":40.4993,"lon":-74.399},{"id":"tn-hendersonville","name":"Hendersonville","state":"TN","lat":36.3048,"lon":-86.62},{"id":"ny-morningside-heights","name":"Morningside Heights","state":"NY","lat":40.81,"lon":-73.9625},{"id":"nc-rocky-mount","name":"Rocky Mount","state":"NC","lat":35.9382,"lon":-77.7905},{"id":"or-corvallis","name":"Corvallis","state":"OR","lat":44.5646,"lon":-123.262},{"id":"wa-olympia","name":"Olympia","state":"WA","lat":47.0449,"lon":-122.9017},{"id":"ga-valdosta","name":"Valdosta","state":"GA","lat":30.8333,"lon":-83.2803},{"id":"ca-hanford","name":"Hanford","state":"CA","lat":36.3274,"lon":-119.6457},{"id":"co-castle-rock","name":"Castle Rock","state":"CO","lat":39.3722,"lon":-104.8561},{"id":"in-greenwood","name":"Greenwood","state":"IN","lat":39.6137,"lon":-86.1067},{"id":"il-chicago-lawn","name":"Chicago Lawn","state":"IL","lat":41.775,"lon":-87.6964},{"id":"ny-hempstead","name":"Hempstead","state":"NY","lat":40.7062,"lon":-73.6187},{"id":"ca-novato","name":"Novato","state":"CA","lat":38.1074,"lon":-122.5697},{"id":"oh-kettering","name":"Kettering","state":"OH","lat":39.6895,"lon":-84.1688},{"id":"ne-bellevue","name":"Bellevue","state":"NE","lat":41.1367,"lon":-95.8908},{"id":"wa-shoreline","name":"Shoreline","state":"WA","lat":47.7557,"lon":-122.3415},{"id":"al-decatur","name":"Decatur","state":"AL","lat":34.6059,"lon":-86.9833},{"id":"ca-paramount","name":"Paramount","state":"CA","lat":33.8895,"lon":-118.1598},{"id":"tx-port-arthur","name":"Port Arthur","state":"TX","lat":29.8852,"lon":-93.9423},{"id":"pa-abington","name":"Abington","state":"PA","lat":40.1207,"lon":-75.1179},{"id":"in-anderson","name":"Anderson","state":"IN","lat":40.1053,"lon":-85.6803},{"id":"fl-tamiami","name":"Tamiami","state":"FL","lat":25.7587,"lon":-80.3984},{"id":"md-towson","name":"Towson","state":"MD","lat":39.4015,"lon":-76.6019},{"id":"ma-north-chicopee","name":"North Chicopee","state":"MA","lat":42.1834,"lon":-72.5995},{"id":"il-uptown","name":"Uptown","state":"IL","lat":41.9659,"lon":-87.6526},{"id":"fl-sarasota","name":"Sarasota","state":"FL","lat":27.3364,"lon":-82.5306},{"id":"ny-cypress-hills","name":"Cypress Hills","state":"NY","lat":40.6771,"lon":-73.8912},{"id":"ct-west-haven","name":"West Haven","state":"CT","lat":41.2707,"lon":-72.9471},{"id":"ca-rosemead","name":"Rosemead","state":"CA","lat":34.0806,"lon":-118.0729},{"id":"il-edgewater","name":"Edgewater","state":"IL","lat":41.9834,"lon":-87.6639},{"id":"nj-jackson","name":"Jackson","state":"NJ","lat":39.7765,"lon":-74.8624},{"id":"ca-highland","name":"Highland","state":"CA","lat":34.1283,"lon":-117.2087},{"id":"il-mount-prospect","name":"Mount Prospect","state":"IL","lat":42.0664,"lon":-87.9373},{"id":"ca-colton","name":"Colton","state":"CA","lat":34.0739,"lon":-117.3136},{"id":"az-encanto","name":"Encanto","state":"AZ","lat":33.4794,"lon":-112.0782},{"id":"id-pocatello","name":"Pocatello","state":"ID","lat":42.8713,"lon":-112.4455},{"id":"fl-bradenton","name":"Bradenton","state":"FL","lat":27.4989,"lon":-82.5748},{"id":"il-rogers-park","name":"Rogers Park","state":"IL","lat":42.0086,"lon":-87.6667},{"id":"ma-weymouth","name":"Weymouth","state":"MA","lat":42.2209,"lon":-70.9398},{"id":"fl-port-charlotte","name":"Port Charlotte","state":"FL","lat":26.9762,"lon":-82.0906},{"id":"il-normal","name":"Normal","state":"IL","lat":40.5142,"lon":-88.9906},{"id":"tx-spring","name":"Spring","state":"TX","lat":30.0799,"lon":-95.4172},{"id":"fl-allapattah","name":"Allapattah","state":"FL","lat":25.8145,"lon":-80.2239},{"id":"wa-richland","name":"Richland","state":"WA","lat":46.2857,"lon":-119.2845},{"id":"tx-euless","name":"Euless","state":"TX","lat":32.8371,"lon":-97.082},{"id":"mo-blue-springs","name":"Blue Springs","state":"MO","lat":39.017,"lon":-94.2816},{"id":"fl-east-pensacola-heights","name":"East Pensacola Heights","state":"FL","lat":30.4288,"lon":-87.18},{"id":"ca-hacienda-heights","name":"Hacienda Heights","state":"CA","lat":33.9931,"lon":-117.9687},{"id":"ny-ozone-park","name":"Ozone Park","state":"NY","lat":40.6768,"lon":-73.8438},{"id":"ny-briarwood","name":"Briarwood","state":"NY","lat":40.7094,"lon":-73.8153},{"id":"ca-cathedral-city","name":"Cathedral City","state":"CA","lat":33.7797,"lon":-116.4653},{"id":"nj-lakewood","name":"Lakewood","state":"NJ","lat":40.0979,"lon":-74.2176},{"id":"oh-elyria","name":"Elyria","state":"OH","lat":41.3684,"lon":-82.1077},{"id":"fl-pensacola","name":"Pensacola","state":"FL","lat":30.4213,"lon":-87.2169},{"id":"il-wheaton","name":"Wheaton","state":"IL","lat":41.8661,"lon":-88.107},{"id":"co-commerce-city","name":"Commerce City","state":"CO","lat":39.8083,"lon":-104.9339},{"id":"nj-hoboken","name":"Hoboken","state":"NJ","lat":40.744,"lon":-74.0324},{"id":"ca-watsonville","name":"Watsonville","state":"CA","lat":36.9102,"lon":-121.7569},{"id":"az-lake-havasu-city","name":"Lake Havasu City","state":"AZ","lat":34.4839,"lon":-114.3225},{"id":"fl-little-havana","name":"Little Havana","state":"FL","lat":25.7681,"lon":-80.2331},{"id":"ma-revere","name":"Revere","state":"MA","lat":42.4084,"lon":-71.012},{"id":"nj-west-new-york","name":"West New York","state":"NJ","lat":40.7879,"lon":-74.0143},{"id":"ca-yucaipa","name":"Yucaipa","state":"CA","lat":34.0336,"lon":-117.0431},{"id":"ca-gilroy","name":"Gilroy","state":"CA","lat":37.0058,"lon":-121.5683},{"id":"fl-poinciana","name":"Poinciana","state":"FL","lat":28.1403,"lon":-81.4584},{"id":"tx-university-of-texas","name":"University of Texas","state":"TX","lat":30.286,"lon":-97.7389},{"id":"tn-kingsport","name":"Kingsport","state":"TN","lat":36.5484,"lon":-82.5618},{"id":"pa-levittown","name":"Levittown","state":"PA","lat":40.1551,"lon":-74.8288},{"id":"fl-palm-beach-gardens","name":"Palm Beach Gardens","state":"FL","lat":26.8234,"lon":-80.1386},{"id":"ct-milford","name":"Milford","state":"CT","lat":41.2223,"lon":-73.0565},{"id":"ca-delano","name":"Delano","state":"CA","lat":35.7688,"lon":-119.2471},{"id":"ca-west-sacramento","name":"West Sacramento","state":"CA","lat":38.5805,"lon":-121.5302},{"id":"nc-huntersville","name":"Huntersville","state":"NC","lat":35.4107,"lon":-80.8428},{"id":"nj-perth-amboy","name":"Perth Amboy","state":"NJ","lat":40.5068,"lon":-74.2654},{"id":"ca-sherman-oaks","name":"Sherman Oaks","state":"CA","lat":34.1511,"lon":-118.4493},{"id":"ms-southaven","name":"Southaven","state":"MS","lat":34.989,"lon":-90.0126},{"id":"mo-saint-peters","name":"Saint Peters","state":"MO","lat":38.8003,"lon":-90.6265},{"id":"dc-downtown-dc","name":"Downtown DC","state":"DC","lat":38.8935,"lon":-77.0199},{"id":"va-harrisonburg","name":"Harrisonburg","state":"VA","lat":38.4496,"lon":-78.8689},{"id":"ma-peabody","name":"Peabody","state":"MA","lat":42.5279,"lon":-70.9287},{"id":"ca-placentia","name":"Placentia","state":"CA","lat":33.8722,"lon":-117.8703},{"id":"ks-lenexa","name":"Lenexa","state":"KS","lat":38.9536,"lon":-94.7336},{"id":"tx-desoto","name":"DeSoto","state":"TX","lat":32.5899,"lon":-96.8569},{"id":"nc-burlington","name":"Burlington","state":"NC","lat":36.0957,"lon":-79.4378},{"id":"wa-south-hill","name":"South Hill","state":"WA","lat":47.1412,"lon":-122.2701},{"id":"in-elkhart","name":"Elkhart","state":"IN","lat":41.682,"lon":-85.9767},{"id":"wi-la-crosse","name":"La Crosse","state":"WI","lat":43.8014,"lon":-91.2396},{"id":"il-oak-park","name":"Oak Park","state":"IL","lat":41.885,"lon":-87.7845},{"id":"mo-florissant","name":"Florissant","state":"MO","lat":38.7892,"lon":-90.3226},{"id":"wa-sammamish","name":"Sammamish","state":"WA","lat":47.6418,"lon":-122.0804},{"id":"ny-wakefield","name":"Wakefield","state":"NY","lat":40.8979,"lon":-73.8524},{"id":"or-albany","name":"Albany","state":"OR","lat":44.6365,"lon":-123.1059},{"id":"il-hoffman-estates","name":"Hoffman Estates","state":"IL","lat":42.0428,"lon":-88.0798},{"id":"il-albany-park","name":"Albany Park","state":"IL","lat":41.9684,"lon":-87.7234},{"id":"ma-methuen","name":"Methuen","state":"MA","lat":42.7262,"lon":-71.1909},{"id":"ca-glendora","name":"Glendora","state":"CA","lat":34.1361,"lon":-117.8653},{"id":"ca-wilmington","name":"Wilmington","state":"CA","lat":33.78,"lon":-118.2626},{"id":"ny-queens-village","name":"Queens Village","state":"NY","lat":40.7268,"lon":-73.7415},{"id":"ga-brookhaven","name":"Brookhaven","state":"GA","lat":33.8584,"lon":-84.3402},{"id":"ny-levittown","name":"Levittown","state":"NY","lat":40.7259,"lon":-73.5143},{"id":"ca-palm-desert","name":"Palm Desert","state":"CA","lat":33.7225,"lon":-116.377},{"id":"mo-joplin","name":"Joplin","state":"MO","lat":37.0842,"lon":-94.5133},{"id":"ok-enid","name":"Enid","state":"OK","lat":36.3956,"lon":-97.8784},{"id":"fl-bonita-springs","name":"Bonita Springs","state":"FL","lat":26.3398,"lon":-81.7787},{"id":"ny-irondequoit","name":"Irondequoit","state":"NY","lat":43.2134,"lon":-77.5797},{"id":"id-caldwell","name":"Caldwell","state":"ID","lat":43.6629,"lon":-116.6874},{"id":"mn-minnetonka","name":"Minnetonka","state":"MN","lat":44.9133,"lon":-93.5033},{"id":"fl-pinellas-park","name":"Pinellas Park","state":"FL","lat":27.8428,"lon":-82.6995},{"id":"mi-battle-creek","name":"Battle Creek","state":"MI","lat":42.3173,"lon":-85.1782},{"id":"az-casa-grande","name":"Casa Grande","state":"AZ","lat":32.8795,"lon":-111.7574},{"id":"il-south-shore","name":"South Shore","state":"IL","lat":41.762,"lon":-87.5778},{"id":"ny-mott-haven","name":"Mott Haven","state":"NY","lat":40.809,"lon":-73.9229},{"id":"fl-the-villages","name":"The Villages","state":"FL","lat":28.9341,"lon":-81.9599},{"id":"ne-grand-island","name":"Grand Island","state":"NE","lat":40.925,"lon":-98.342},{"id":"tx-grapevine","name":"Grapevine","state":"TX","lat":32.9343,"lon":-97.0781},{"id":"ct-stratford","name":"Stratford","state":"CT","lat":41.1845,"lon":-73.1332},{"id":"mi-kentwood","name":"Kentwood","state":"MI","lat":42.8695,"lon":-85.6448},{"id":"ct-city-of-milford-balance","name":"City of Milford (balance)","state":"CT","lat":41.2237,"lon":-73.0616},{"id":"or-tigard","name":"Tigard","state":"OR","lat":45.4312,"lon":-122.7715},{"id":"ct-east-hartford","name":"East Hartford","state":"CT","lat":41.7823,"lon":-72.612},{"id":"mn-apple-valley","name":"Apple Valley","state":"MN","lat":44.7319,"lon":-93.2177},{"id":"nj-plainfield","name":"Plainfield","state":"NJ","lat":40.6337,"lon":-74.4074},{"id":"va-leesburg","name":"Leesburg","state":"VA","lat":39.1157,"lon":-77.5636},{"id":"nj-parsippany","name":"Parsippany","state":"NJ","lat":40.8579,"lon":-74.426},{"id":"fl-coral-gables","name":"Coral Gables","state":"FL","lat":25.7215,"lon":-80.2684},{"id":"tx-the-trails-of-frisco","name":"The Trails of Frisco","state":"TX","lat":33.1609,"lon":-96.8718},{"id":"fl-the-hammocks","name":"The Hammocks","state":"FL","lat":25.6715,"lon":-80.4445},{"id":"az-buckeye","name":"Buckeye","state":"AZ","lat":33.3703,"lon":-112.5838},{"id":"fl-flagami","name":"Flagami","state":"FL","lat":25.7623,"lon":-80.3162},{"id":"az-catalina-foothills","name":"Catalina Foothills","state":"AZ","lat":32.2978,"lon":-110.9187},{"id":"oh-lakewood","name":"Lakewood","state":"OH","lat":41.482,"lon":-81.7982},{"id":"wi-north-la-crosse","name":"North La Crosse","state":"WI","lat":43.8464,"lon":-91.2482},{"id":"wa-burien","name":"Burien","state":"WA","lat":47.4704,"lon":-122.3468},{"id":"pa-havertown","name":"Havertown","state":"PA","lat":39.9809,"lon":-75.3085},{"id":"ut-logan","name":"Logan","state":"UT","lat":41.7355,"lon":-111.8344},{"id":"ma-south-peabody","name":"South Peabody","state":"MA","lat":42.5098,"lon":-70.9495},{"id":"ca-aliso-viejo","name":"Aliso Viejo","state":"CA","lat":33.565,"lon":-117.7271},{"id":"pa-harrisburg","name":"Harrisburg","state":"PA","lat":40.2737,"lon":-76.8844},{"id":"tx-galveston","name":"Galveston","state":"TX","lat":29.3013,"lon":-94.7977},{"id":"ca-poway","name":"Poway","state":"CA","lat":32.9628,"lon":-117.0359},{"id":"mn-edina","name":"Edina","state":"MN","lat":44.8897,"lon":-93.35},{"id":"mn-minnetonka-mills","name":"Minnetonka Mills","state":"MN","lat":44.9411,"lon":-93.4419},{"id":"ga-stonecrest","name":"Stonecrest","state":"GA","lat":33.7085,"lon":-84.1349}]